route_id,stop_id,stop_name,stop_lat,stop_lon
142,146,Najafgarh Terminal,28.614614,76.978024
142,148,Jharoda Crossing,28.61448074,76.98106202
142,149,Health Centre,28.61415,76.985217
142,488,NajafGarh Delhi Gate,28.611746,76.985721
142,233,Police Station NajafGarh,28.61031861,76.98133766
142,915,Dhansa Stand,28.61149114,76.97790955
142,916,Khera More,28.610938,76.97401
142,2161,Krishna Nagar / Gopal Nagar,28.606425,76.972858
142,2162,Khera Village,28.5987726,76.96698094
142,3569,Khera Village 2,28.596347,76.965226
142,2163,KharKhari Nahar / Khera Dabur,28.586969,76.959227
142,2164,Surhera Crossing,28.58215173,76.95808206
142,2165,Pandwala Crossing,28.573848,76.952387
142,2166,KharKhari Rondh,28.561696,76.941952
142,2167,Hasanpur Village,28.556475,76.936796
142,2168,Devta Wala Mandir,28.548826,76.930857
142,2169,Ghuman Hera More / Shikarpur Crossing,28.536825,76.922412
142,2170,Ghuman Hera Village Main Road,28.5326827,76.9196563
142,2171,Ghuman Hera DTC Depot Crossing,28.534088,76.915012
142,2172,Jhul-Jhuli Check Post / Ghumanhera Crossing,28.5352,76.909367
142,2173,Jhuljhuli Crossing,28.53162,76.907067
142,2174,Rawta Village,28.526609,76.903562
142,2175,Amrawati Piyau Galib Pur Road,28.5253328,76.8874616
142,2176,Galib Pur Piyau,28.531301,76.883663
142,2177,Galib Pur Village,28.529556,76.881142
233,4495,Bawana JJ Colony,28.80887,77.05374
233,21,Bawana JJ Colony CRPF Camp,28.806738,77.048163
233,1145,DSIDC Bawana Sec 2,28.803302,77.042627
233,1146,Bawana Soap Factory,28.8018412,77.03929
233,1147,Bawana Dispensary,28.80095,77.03738
233,1148,Bawana Village Chowk,28.799973,77.03552
233,1914,Bawana School,28.796282,77.035817
233,1915,Aditi College Bawana,28.7942,77.0368
233,1916,DSIDC Bawana/ Dhakewala,28.78585,77.0414
233,22516,DSIDC Office Bawana,28.7804,77.044017
233,1918,Maharishi Valmiki Hospital,28.775033,77.047683
233,1919,Poothkhurd Village,28.772383,77.048967
233,1920,Sultan Pur Crossing / Poothkhurd,28.767867,77.049417
233,1921,Poothkhurd Firni Road,28.764589,77.054957
233,1922,Barwala Village,28.760383,77.060717
233,1923,Barwala School,28.759233,77.062833
233,3985,Rohini Sec 35,28.757463,77.066964
233,1924,Jain Colony,28.7539,77.072883
233,1925,Prehladpur School,28.75305,77.07475
233,1926,Prehladpur Village,28.7512,77.080967
233,1927,Prehladpur Crossing,28.749319,77.084811
233,2937,Krishna Colony,28.746817,77.087767
233,2938,Deep Vihar,28.737876,77.083138
233,2939,Prehlad Vihar (Deep Vihar) Rohini Sec 25,28.735182,77.086984
233,22517,Rohini Sec 24 Dear Satguru Sewaram Crossing,28.72821709,77.09256598
233,22518,Hanuman Mandir Rohini Sec 24,28.722883,77.087733
233,2941,Power House Rohini Sec 24,28.726983,77.080267
233,2942,Rohini Sec 20/21/22 Crossing,28.719975,77.069
233,981,Rohini Sec-21,28.7188,77.069767
233,4484,District Park Sector 20,28.7062153,77.0709036
233,3607,Sultanpuri Terminal,28.70313785,77.0752384
233,2538,Sultanpuri C Block,28.70095,77.0754
233,2539,Sultanpuri D Block,28.6996,77.0753
233,2540,Jalebi Chowk Sultan Puri AB Block,28.6955,77.0738
233,3608,Sultan Puri AB Block,28.6935,77.073
233,2541,Sultan Puri AB Block Extension,28.69306,77.0775
233,4235,S Block Mangol Puri,28.692667,77.082583
233,4236,Chhath Park Mangol Puri,28.692583,77.086783
233,4237,C Block Mangol Puri,28.692483,77.09145
233,4238,PS Mangol Puri,28.696733,77.092067
233,4485,D Block Mangol Puri (T),28.696577,77.095894
118,69,Kair Depot,28.618288,76.930672
118,1351,Mitraon Village,28.608237,76.947333
118,4347,Mitraon Village,28.60824048,76.9473751
118,374,Mitraon Crossing,28.608343,76.951668
118,375,Indra Service Station,28.608858,76.959974
118,376,Nanak Piyau,28.609487,76.967851
118,377,Prem Nursary,28.610354,76.971259
118,378,Khera More / Ghuman Hera Crossing,28.61113002,76.97445974
118,22519,Nazafgarh Dhansa More,28.612021,76.978565
118,379,Jharoda Crossing Jharoda Road,28.6137657,76.97936262
118,380,NajafGarh Terminal,28.61483116,76.97724911
67,752,Bawana Sec 1 Cluster Depot,28.79500536,77.04113605
67,22520,Bawana JJ Colony CRPF Camp,28.806989,77.047994
67,22521,Jain Bekhunth Mandir,28.812078,77.054057
67,755,Delhi Jal Board Bawana,28.815521,77.058038
67,2852,Sannoth Crossing / Ghoga Crossing,28.819901,77.063707
67,2853,Kaushal Devi Netraheen Ashram,28.825515,77.069757
67,2854,Bharat Mata School,28.832922,77.076468
67,2855,Maharaja Agrassen School,28.835746,77.079296
67,2856,New Anaj Mandi Xing,28.842683,77.088691
67,270,Old Anaj Mandi,28.845328,77.088967
67,271,Narela Primary School,28.847045,77.088366
67,0,Narela Terminal,28.851958,77.088107
67,1,Police Station Narela,28.853311,77.088548
67,3102,Safiyabad Crossing,28.85513,77.08893
67,3103,Sanjay Colony (Safiabad),28.863,77.08554
67,3104,Safiabad Border,28.871125,77.081181
8,1742,New Seema Puri Depot Cluster,28.684794,77.331346
8,1744,Shalimar Garden More,28.688212,77.330289
8,1745,DLF More,28.692877,77.32719
8,1746,Tahir Pur,28.691367,77.324967
8,1747,Anand Gram,28.688813,77.321994
8,1748,Anand Gram Kusht Ashram,28.688673,77.319121
8,1749,Sunder Nagri,28.692844,77.315743
8,1750,Gagan Cinema,28.695745,77.315146
8,1751,Gagan Cinema (Wazirabad Road),28.697499,77.314785
8,1752,Bank Colony,28.698102,77.311463
8,1753,Nand Nagri Depot,28.698972,77.306183
8,1754,Ashok Nagar / Meet Nagar,28.700066,77.297896
8,1755,MIG Flates Loni Road,28.700502,77.295585
8,1756,MIG Flats Loni Road,28.699263,77.291784
8,1757,PS Jyoti Nagar / LIG Flats Loni Road,28.696189,77.291843
8,1758,Jyoti Nagar,28.691428,77.292048
8,1759,Jyoti Nagar / Durga Puri,28.68922,77.291307
8,1760,Chhajjupur,28.6894,77.287
8,1761,Shiv Mandir,28.6898,77.283783
8,3331,Babarpur Ext Maujpur Crossing,28.6891259,77.27805789
8,3332,Zafrabad School,28.683533,77.27525
8,3333,Madarsa / Welcome Seelam Pur,28.680583,77.273917
8,3334,Zafrabad,28.676269,77.271694
8,3335,Seelampur Market Zafrabad Road,28.67340339,77.27018843
8,781,Seelampur Metro Station,28.670722,77.266485
8,782,Dharam Pura,28.670717,77.261917
8,783,Shastri Park,28.6723,77.2571
8,784,Shastri Park,28.673195,77.251804
8,785,Shyam Giri Mandir,28.67382,77.248024
8,786,Shastri Park DMRC Depot,28.674167,77.243433
8,787,Shastri Park Metro Depot,28.673433,77.241183
8,788,ISBT Bridge,28.6692301,77.228774
8,300,ISBT Nityanand Marg,28.668479,77.226269
8,669,Tees Hazari Court,28.666662,77.21926
8,670,St Stephen Hospital,28.6671,77.2149
8,671,Ice Factory (Rani Jhansi Road),28.666336,77.208872
8,789,Azad Market,28.6627,77.2075
8,790,Bara Hindu Rao,28.660752,77.204049
8,791,Model Basti,28.657229,77.203685
8,792,Guru Govind Singh Marg,28.655331,77.198831
8,793,Tibiya College,28.65754,77.194648
8,794,Ram Jas Road,28.659086,77.191154
8,795,Liberty Cinema,28.659825,77.188866
8,796,Sarai Rohilla Govt Qtrs (Rohtak Road),28.661182,77.185019
8,797,Sarai Rohila (Rohtak Road),28.662538,77.182083
8,2727,Sarai Rohilla Flyover,28.667017,77.181867
8,681,Shastri Nagar Metro Station,28.669997,77.181336
8,682,Shastri Nagar E Block,28.6711,77.17605
8,683,Shastri Nagar Shiv Mandir,28.6716,77.173
8,684,Inderlok Metro Station,28.673633,77.168983
8,2835,Inderlok Metro Station,28.673217,77.169483
189,2597,Jonti Border,28.757118,76.945694
189,2598,Jonti Village,28.74925387,76.96877493
189,2599,Jonti Crossing,28.745907,76.978056
189,2600,Vriddha Ashram,28.744583,76.98095
189,2601,Sant Vivekanand School,28.7423,76.986717
189,2602,Rajendra Lakra Public School,28.740383,76.994583
189,2603,Ladpur Village,28.739603,76.997508
189,2604,Nirmal Hospital,28.73865,77.004467
189,1159,Kanjhawala Chowk,28.73747,77.00814
189,1160,Shivam Plywood,28.73544,77.01226
189,1161,Radha Swami Satsang / Rupali Enclave,28.733977,77.020936
189,1162,Shiv vihar/Bheem chowk,28.73345,77.02515
189,22530,Desu Office Karala,28.732641,77.028591
189,973,Karala Crossing,28.731617,77.03235
189,974,Karala Village,28.731583,77.036983
189,22531,Karala School,28.7308,77.0398
189,22532,Rohini Sec 37 eBus Depot,28.74793072,77.05222177
189,22533,Rohini Sec 36,28.744796,77.067859
189,22534,Pansali Dham Rohini,28.740899,77.076594
189,22535,Begumpur Extension,28.728464,77.075951
189,4051,Police Station Begumpur,28.72244,77.071418
189,981,Rohini Sec-21,28.7188,77.069767
189,982,Poothkalan,28.71589,77.07422
189,406,Pooth Kalan,28.714257,77.076933
189,984,Brahm Shakti Hospital,28.712372,77.080713
189,404,Krishna Vihar,28.709736,77.081042
189,985,Buddh Vihar,28.706783,77.084171
189,987,Mangol Puri Y Block,28.702762,77.089612
189,988,Mangol Pur Khurd,28.700117,77.094277
189,989,Avantika Xing,28.698384,77.097225
189,990,Mangolpur Kalan Village,28.695671,77.101095
189,991,Mangol Pur School (Outer Ring Road),28.694414,77.106315
189,992,Rohini Depot III,28.695494,77.108823
189,993,Puspanjali Enclave Rohini Depot 3,28.696609,77.112857
189,994,Kali Mata Mandir,28.697446,77.115993
189,995,Deepali Chowk Ring Road,28.698196,77.119004
189,996,Saraswati Vihar C Block,28.700141,77.12472
189,997,Madhuban Chowk Outer Ring Road,28.701935,77.128048
189,2605,Madhuban Chowk Pitampura Metro Stn,28.702623,77.132828
189,2606,Pitampura JD Block,28.701974,77.134322
189,2607,Vaishali Enclave / Kapil Vihar,28.699828,77.137505
189,2608,Kohat Enclave Metro Station,28.697347,77.142158
189,2609,Pitampura ND Block,28.695909,77.145887
189,2009,Netaji Subhash Palace (Wazirpur Depot) Road No 41,28.694143,77.151048
189,4346,Wazirpur Depot / Subhash Place Depot,28.69485,77.15485
189,1438,Prem Bari Pull,28.700253,77.158334
189,1439,Richi Rich,28.701286,77.161926
189,1440,Ashok Vihar Crossing,28.701953,77.164286
189,2610,Kewal Park,28.709765,77.175333
189,239,Azadpur Terminal,28.707525,77.177797
139,246,GTK Depot,28.731183,77.158617
139,248,Mukraba Chowk / Sanjay Gandhi Transport Nagar,28.738473,77.154112
139,249,Libas Pur GT Road,28.752467,77.149383
139,250,Swaroop Nagar GT Road,28.75805,77.14765
139,251,Gurudwara Siraspur GT Road,28.76486,77.145315
139,1194,Nangli Puna,28.7729,77.14305
139,1195,Jain Mandir,28.777717,77.142033
139,1196,Budhpur GT Road,28.78185,77.141117
139,1197,Bdo Office,28.79315,77.139833
139,1198,Alipur Village GT Road,28.796783,77.139433
139,765,Pwd Office,28.8022,77.1386
139,766,Bakauli Village,28.811931,77.135652
139,22538,NIT GT Road,28.81634633,77.13438077
139,767,Khampur Village,28.824805,77.13183
139,768,Tikri Khurd Crossing,28.835211,77.12846
139,769,Tikri Khurd,28.835878,77.1238
141,2112,OKHLA DEPOT,28.5187038,77.2851174
141,2113,Central Workshop II,28.516367,77.2836
141,946,ESI Hospital,28.5143,77.281333
141,476,Tehkhand Depot DTC,28.510917,77.281167
141,2475,Tuglaqabad MB Road,28.505533,77.276483
141,2476,Kaya Maya Hospital,28.507933,77.26915
141,2477,Tughalqabad Village,28.509067,77.265117
141,2478,Air Force Station,28.5114,77.256483
141,2479,Air Force Station,28.511533,77.254417
141,1529,Hamdard Nagar / Sangam Vihar,28.511838,77.249778
202,146,Najafgarh Terminal,28.614614,76.978024
202,2032,Jharoda Crossing,28.614227,76.980845
202,149,Health Centre,28.61415,76.985217
202,488,NajafGarh Delhi Gate,28.611746,76.985721
202,489,Chawla Stand Najafgarh,28.607056,76.986005
202,490,BDO Office,28.600879,76.988758
202,491,Durga Vihar,28.59664,76.99046
202,492,Deenpur Village,28.594055,76.991774
202,493,Goela Dairy Crossing,28.591726,76.992969
202,1166,Jhatikara Crossing,28.584508,76.995742
202,1167,Rewla Taj Pur More,28.577927,76.996696
202,1168,Chhawla School,28.565889,77.000619
202,1246,Chhawla Village,28.561283,77.002168
202,1247,Sumesh Vihar,28.557759,77.004508
202,1248,BSF Camp Chhawla,28.554147,77.006475
202,1249,BSF Campus Chhawla,28.547741,77.00935
202,1250,Toll Tax Post,28.543378,77.012818
202,1251,Bamnoli Power Station,28.54218,77.017987
202,1252,Bamnoli Crossing,28.53919,77.030335
202,1253,Bijwasan Railway Station,28.535596,77.04381
202,1255,Shri Golok Dham Bijwasan School,28.533823,77.059292
202,1257,Kapashera Village Bijwasan Road,28.527671,77.076297
202,589,Kapashera Crossing,28.531234,77.088154
202,590,Samalkha Village,28.534492,77.090371
202,1259,Samalkha Crossing,28.537955,77.093708
202,1260,Uppal Hotel,28.537233,77.102493
202,1261,Shiv Murti (NH-8),28.535299,77.10847
202,1262,Rang Puri (NH-8 Circle),28.543865,77.117712
202,2101,Mahipal Pur (NH-8),28.5480236,77.1251508
202,1263,Mahipal Pur (NH-8),28.548041,77.125184
202,1264,Shankar Vihar NH-8,28.566684,77.133985
202,1265,APS Colony/ Jharera Gaon,28.579967,77.144817
202,1266,Air Force HQ / Subroto Park,28.584133,77.146033
202,1268,RR Hospital,28.590067,77.155817
202,191,Dhaula Kuan,28.592987,77.162865
202,1549,Officer Enclave S.P Marg,28.597241,77.171473
202,1550,Bapu Dham,28.599196,77.175168
202,1551,Railway Colony (Sardar Patel Marg),28.600686,77.177964
202,1552,Bhartiya Sadhu Samaj,28.603864,77.184052
202,1553,Palika Kutumb,28.60751,77.188687
202,1554,11 Murti,28.611132,77.190671
202,1555,Talkatora Stadium,28.621202,77.193727
202,1670,Dr. RML Hospital,28.6226,77.1966
202,1284,Talkatora Road,28.623281,77.201586
202,1285,Gurudwara Rakab Gunj,28.621164,77.20521
202,1286,Kendriya Terminal (Pt. Pant Marg),28.621545,77.206233
202,1287,NDPO,28.62548,77.2065
202,1556,Gurudwara Bangla Sahib,28.625396,77.209524
202,1557,YMCA / Palika Kendra,28.626382,77.212661
202,1558,Palika Kendra,28.628746,77.216568
202,1033,Shivaji Park,28.638674,77.223986
202,1034,Vivekanand Marg / Minto Road,28.64145,77.226006
202,1035,PS Kamla Market,28.643042,77.226021
202,22539,Kamla Market / Ajmeri Gate,28.643992,77.224068
213,146,Najafgarh Terminal,28.614614,76.978024
213,147,Jharoda Crossing/Nazafgarh Terminal,28.613617,76.979717
213,149,Health Centre,28.61415,76.985217
213,488,NajafGarh Delhi Gate,28.611746,76.985721
213,914,Police Station Najafgarh,28.609477,76.983288
213,915,Dhansa Stand,28.61149114,76.97790955
213,916,Khera More,28.610938,76.97401
213,2844,Prem Nursary,28.61016589,76.97130124
213,918,Nanak Piyau,28.60917792,76.96715712
213,919,Indra Service Station,28.60854181,76.95877826
213,921,Mitraon Village,28.60806819,76.94732433
213,71,Mitraon School,28.607199,76.939964
213,72,Surehra Crossing,28.60425122,76.93243765
213,2996,Rawta Crossing (Dhansa Road),28.59996,76.914581
213,74,Jaffarpur Kalan RTRM Hospital,28.5948401,76.91534756
213,368,Samaspur Khalsa,28.57907893,76.91009645
213,2997,Ujwa School,28.5733842,76.9083067
213,365,Ujwa Gaon,28.56833846,76.90652303
213,1390,Dariyapur Village / Malikpur Crossing,28.552433,76.907767
213,1391,Jhul-Jhuli Check Post / Ghumanhera Crossing,28.535481,76.909753
213,3951,Jhuljhuli Xing,28.532,76.9073
213,3952,JhulJhuli Village,28.534786,76.904192
213,3953,Sarang Pur Village,28.542685,76.888888
18,246,GTK Depot,28.731183,77.158617
18,248,Mukraba Chowk / Sanjay Gandhi Transport Nagar,28.738473,77.154112
18,249,Libas Pur GT Road,28.752467,77.149383
18,250,Swaroop Nagar GT Road,28.75805,77.14765
18,251,Gurudwara Siraspur GT Road,28.76486,77.145315
18,1194,Nangli Puna,28.7729,77.14305
18,1195,Jain Mandir,28.777717,77.142033
18,1196,Budhpur GT Road,28.78185,77.141117
18,1197,Bdo Office,28.79315,77.139833
18,1198,Alipur Village GT Road,28.796783,77.139433
18,765,Pwd Office,28.8022,77.1386
18,766,Bakauli Village,28.811931,77.135652
18,767,Khampur Village,28.824805,77.13183
18,574,Tikri Khurd Crossing / AMPC,28.836177,77.12839
18,1586,Singhola Crossing,28.840692,77.127563
18,1587,Singhola Village GT Road,28.844749,77.126832
18,2864,Singhu Village,28.852475,77.130634
18,2865,Singhu School (T),28.862175,77.138266
49,4377,Ramdev Chowk Narela Terminal,28.85962719,77.09418355
49,2857,Narela A-6 / CPJ College,28.86145,77.0956
49,5,State Bank Of Allahbad,28.854724,77.097933
49,6,Sec A-9 Narela,28.851769,77.097906
49,8,Narela Pocket 13 / A-6,28.848993,77.098485
49,9,Raja Harish Chandra Hospital,28.840804,77.10202
49,3538,B-2 Narela E Block,28.841813,77.113487
49,3539,Singhola Village,28.841843,77.121666
49,3248,Singhola Crossing,28.841243,77.127808
49,575,Tikri Khurd Crossing / AMPC,28.835604,77.128935
49,576,Khampur Village,28.824476,77.132311
49,3249,Bakauli Village,28.811949,77.136329
49,3158,Shani Mandir / Palla Crossing,28.803971,77.143083
49,579,Pwd Office,28.8012,77.138967
49,580,Alipur Village GT Road,28.796617,77.1396
49,934,Mcd Store,28.793717,77.142333
49,581,Jind Pur Crossing,28.793233,77.14415
49,582,Sai Mandir,28.78865,77.141467
49,583,Budhpur GT Road,28.782107,77.141601
49,584,Jain Mandir,28.77715,77.142633
49,585,Nangli Poona (GT Road),28.774167,77.143267
49,586,Gurudwara Siraspur GT Road,28.764956,77.146126
49,23,Swaroop Nagar GT Road,28.758318,77.148305
49,24,Libas Pur GT Road,28.75027,77.15075
49,25,Sanjay Gandhi Transport Nagar,28.7402,77.154
49,27,GTK Depot,28.731117,77.158967
49,28,Jahangirpuri GT Road (Metro Station),28.7257,77.163
49,29,Mahindra Park,28.721715,77.166162
49,30,Sarai Pipal Thala,28.7206,77.1671
49,31,Adarsh Nagar Metro Station,28.717467,77.169917
49,32,New Sabzi Mandi,28.714415,77.172422
49,951,Azadpur Terminal,28.707667,77.180271
49,952,Model Town III,28.706127,77.185301
49,953,Model Town II,28.704282,77.190629
49,954,Alpana Cinema (Model Town Mtr Stn),28.703017,77.193837
49,955,New Police Line,28.699589,77.202973
49,293,GTB Nagar,28.698294,77.206554
49,195,INS Hostel,28.696197,77.21214
49,196,Vishwa Vidyalaya Metro Station,28.695022,77.215318
49,197,Mall Road,28.69382,77.218624
49,294,Khyber Pass,28.690202,77.221419
49,295,Vidhan Sabha Metro Station,28.687634,77.221672
49,296,Old Secretariat (Postal Account Office),28.683891,77.222282
49,297,IP College,28.679703,77.223955
49,956,Exchange Store / Civil Lines Metro Station,28.676617,77.225033
49,299,Ludlow Castle,28.672405,77.226008
49,300,ISBT Nityanand Marg,28.668479,77.226269
49,22522,Mori Gate Terminal,28.665824,77.222057
55,2371,ARSD College / Dhaula Kuan,28.590589,77.168498
55,1051,Satya Niketan,28.588732,77.170023
55,1052,Gurudwara Moti Bagh,28.5851033,77.1724418
55,1053,South Moti Bagh (Ring Road),28.581943,77.174262
55,1054,South Moti Bagh,28.577432,77.173731
55,2373,Shanti Niketan / RK Puram Sec 9,28.57478249,77.16876999
55,3056,Shanti Niketan,28.572969,77.163914
55,1221,Swami Malai Mandir,28.568464,77.164829
55,1222,R K Puram Sec-5,28.563043,77.168215
55,1223,R K Puram Sec-5,28.560598,77.170161
55,1224,Vasant Vihar Depot,28.558899,77.171968
55,1063,Munirka Family Planning,28.556991,77.174527
55,1064,Munirka DDA Flats,28.555501,77.17666
55,1065,ISTM,28.552791,77.18088
55,1066,IIT Hostel,28.550003,77.185541
55,1067,Jia Sarai,28.548571,77.1891
55,1068,IIT Gate,28.545957,77.196984
55,1016,IIT Gate (Aurobindo Marg),28.54585,77.201967
55,1017,Padmani Enclave,28.5492,77.2034
55,1018,Hauz Khas,28.553,77.2049
55,1019,Green Park,28.558583,77.206733
55,1020,Yusuf Sarai,28.5626,77.2074
55,1021,Safdurjung Hospital / AIIMS,28.56725,77.207733
55,1405,AIIMS Ring Road,28.569185,77.21269
55,1406,South Extension,28.569014,77.216908
55,1407,South Extension,28.568824,77.220684
55,456,Andrews Ganj,28.565987,77.230567
55,457,Gupta Market,28.565133,77.239733
55,2467,Lajpat Nagar (Ring Road),28.565482,77.245621
55,459,Lajpat Nagar Ring Road,28.565781,77.249098
55,1090,Nehru Nagar,28.569103,77.253865
55,1791,Ashram Chowk,28.570423,77.259919
55,1792,Mata Mandir New Friends Colony,28.566306,77.263032
55,1793,Bharat Nagar,28.566738,77.269676
55,1794,Bharat Nagar Crossing,28.5622,77.2723
55,1795,Holy Family Hospital,28.561083,77.275417
55,1796,Jamiya Millia College,28.56115,77.280117
55,1797,Ansari Health Care,28.5614,77.2836
55,1798,Batla House,28.5647,77.288
55,1799,Okhla Village,28.563283,77.291386
55,1800,Nai Basti,28.5616,77.2945
55,1801,Unani Hospital / Okhla Ext Thokar 3,28.55898,77.296216
55,2590,Shaheen Bagh Thokar No 5,28.552517,77.29995
55,2591,Shaheen Bagh Thokar No 8 (A F Enclave ),28.54925,77.303983
55,2592,Okhla Extension (Abul Fazl Encalve),28.54651,77.307126
134,22539,Kamla Market / Ajmeri Gate,28.643992,77.224068
134,1641,Dispensary Paharganj,28.6449,77.2135
134,1645,Faiz Road,28.648267,77.199017
134,521,Pusa Road Petrol Pump Sadhu Vaswani Marg,28.644583,77.192833
134,3216,Janki Devi College,28.641581,77.190017
134,3217,Sir Ganga Ram Hospital,28.63894,77.18816
134,3218,New Rajinder Nagar Post Office,28.636825,77.182967
134,3219,Shankar Road,28.638883,77.179283
134,3220,Rajender Nagar,28.6407,77.176217
134,524,East Patel Nagar,28.64241106,77.17340918
134,525,South Patel Nagar (Metro Station),28.64539457,77.16841961
134,526,West Patel Nagar,28.647504,77.164974
134,527,Shadipur DTC Colony Metro Station,28.6513447,77.15850989
134,2993,Shadipur Colony,28.6517,77.1565
134,727,Pandav Nagar,28.650051,77.153678
134,2994,Naraina Depot,28.6487,77.1512
134,2995,Bentex,28.6442,77.1477
134,1462,Loha Mandi,28.6395,77.143933
134,1463,Payal Cinema,28.6309,77.1383
134,1464,Naraina Vihar / Indra Market,28.626762,77.135747
134,1465,Mayapuri Depot Crossing,28.636933,77.1289
134,1466,Government Press,28.634183,77.127517
134,2305,Metal Forging,28.6298,77.1233
134,2306,DDA Flats Hari Nagar,28.6308,77.1193
134,2307,Swarg Ashram,28.6308,77.1149
134,2308,Beriwala Bagh,28.631183,77.112167
134,2309,DDU Hospital,28.6282,77.111
134,2310,Hari Nagar Shaheed Pawan Sahni Chowk,28.624804,77.110518
134,3221,DA Block Hari Nagar,28.62491667,77.10705
134,3222,Hari Nagar Depot,28.624983,77.1022
134,2652,Virender Nagar/ Dilli Haat,28.623584,77.09761
134,2314,C2B Janak Puri,28.6212976,77.0889992
134,710,C4E Janakpuri,28.617217,77.088345
134,2654,C2D Janakpuri,28.614332,77.08708
134,4318,Dabri Crossing Dwarka Road,28.61196498,77.08609353
134,2635,New Dwarka Road Seetapuri,28.60907058,77.08079614
134,2636,Dwarka Puri,28.607483,77.078267
134,2637,Vijay Enclave (New Dwarka Road),28.6062,77.0755
134,2638,Mahaveer Enclave Part II  and  III,28.60397024,77.07198378
134,2639,SFS Flat Sec-2 Power House,28.600333,77.071483
134,2640,Dwarka Sec-1 Mahalaxmi Apartment,28.5964312,77.0722357
134,639,J M International School,28.595421,77.070134
134,640,Dwarka Sec 2-6,28.597335,77.064944
134,641,Madhu Vihar,28.599779,77.061168
134,642,Rajapuri,28.6038,77.0551
134,643,Matiyala Xing,28.605032,77.051737
134,644,DPS Matiyala,28.604518,77.046323
134,645,Dwarka Sec 3-4,28.602648,77.043175
134,646,Dwarka Sec 13-3 Xing,28.602551,77.040932
134,647,MRV School Sec 13 Dwarka,28.603988,77.038876
134,648,Dwarka Sec 13,28.605684,77.036274
134,649,NSIT (Netaji Subhas Institute) / Sulahkul Mandir,28.607416,77.035099
134,650,Suraj Vihar,28.610723,77.034031
134,3223,Dwarka More Metro Station (Terminal),28.617802,77.031875
30,2831,Lampur Border,28.856794,77.052383
30,4295,Varishth Nagrik Sewa Sadan Lampur,28.852751,77.061682
30,2832,Lampur Village,28.852483,77.065004
30,2833,Lampur School,28.851954,77.067445
30,2834,Sarvodaya Vidyalaya Bankner,28.851165,77.073496
30,1647,Bankner Village,28.850842,77.076805
30,1648,New Basti Bankner,28.851418,77.080363
30,1649,Bankner Crossing,28.850725,77.087612
30,0,Narela Terminal,28.851958,77.088107
30,1,Police Station Narela,28.853311,77.088548
30,2,Safiyabad Crossing,28.854965,77.089322
30,3,Ramdev Chowk / Pitori Johad,28.857713,77.092846
30,2857,Narela A-6 / CPJ College,28.86145,77.0956
30,2858,Sec A 5 and 8 Narela Desu Colony,28.86457,77.09847
30,2859,Police Colony Narela,28.86136,77.10151
30,1234,Sec A 5 Crossing Narela,28.85772,77.10377
30,2860,Radha Swami Satsang Narela,28.85753,77.10594
30,2861,Gurudwara Nanak Nirankari Dera Sant Baba Resham Singh Ji,28.85747,77.10843
30,20024,Singhu Border Crossing,28.85722,77.12403
30,2863,Singhu Village Crossing,28.85455,77.12533
30,3247,Singhola Village GT Road,28.844598,77.127208
30,3248,Singhola Crossing,28.841243,77.127808
30,575,Tikri Khurd Crossing / AMPC,28.835604,77.128935
30,576,Khampur Village,28.824476,77.132311
30,3157,Bakauli Village (GT Road),28.810257,77.13728
30,3158,Shani Mandir / Palla Crossing,28.803971,77.143083
30,579,Pwd Office,28.8012,77.138967
30,580,Alipur Village GT Road,28.796617,77.1396
30,934,Mcd Store,28.793717,77.142333
30,581,Jind Pur Crossing,28.793233,77.14415
30,583,Budhpur GT Road,28.782107,77.141601
30,584,Jain Mandir,28.77715,77.142633
30,585,Nangli Poona (GT Road),28.774167,77.143267
30,586,Gurudwara Siraspur GT Road,28.764956,77.146126
30,23,Swaroop Nagar GT Road,28.758318,77.148305
30,24,Libas Pur GT Road,28.75027,77.15075
30,25,Sanjay Gandhi Transport Nagar,28.7402,77.154
30,27,GTK Depot,28.731117,77.158967
30,28,Jahangirpuri GT Road (Metro Station),28.7257,77.163
30,29,Mahindra Park,28.721715,77.166162
30,30,Sarai Pipal Thala,28.7206,77.1671
30,31,Adarsh Nagar Metro Station,28.717467,77.169917
30,32,New Sabzi Mandi,28.714415,77.172422
30,951,Azadpur Terminal,28.707667,77.180271
30,952,Model Town III,28.706127,77.185301
30,953,Model Town II,28.704282,77.190629
30,954,Alpana Cinema (Model Town Mtr Stn),28.703017,77.193837
30,3861,Nanak Piyau / DTC Colony,28.69105,77.19278333
30,39,Rana Pratap Bagh,28.68826667,77.1937
30,40,Gur Mandi,28.6848,77.1963
30,41,Roop Nagar / Shakti Nagar (GT Road),28.682832,77.197614
30,42,Clock Tower,28.677617,77.201567
30,43,Roshnara Bagh,28.6733,77.2018
30,44,Roshnara Road,28.669249,77.20455
30,107,Ice Factory (Nityanand Marg),28.6676101,77.210806
30,46,St Stephen Hospital,28.667356,77.215047
30,47,Tees Hazari Court,28.666864,77.218926
30,22522,Mori Gate Terminal,28.665824,77.222057
30,1951,Novelty Cinema,28.6614,77.2211
30,1585,Old Delhi Railway Station,28.66030866,77.22830103
133,3036,IGI Airport Terminal 2 (Air India Office),28.5571929,77.0912661
133,4442,Air Traffic Control Office,28.5567118,77.0938804
133,3037,Cargo / Express Terminal Gate,28.55455582,77.10343184
133,3038,Centaur Hotel / New Custom House,28.54892975,77.1050548
133,4443,AMPC (Automated Mail Processing Centre),28.5515241,77.1101224
133,3039,AeroCity Metro Station,28.5482264,77.1212054
133,1691,Mahipal Pur Crossing NH-8,28.545775,77.123056
133,1692,Rang Puri (NH-8),28.541953,77.118268
133,1693,Shiv Murti,28.535769,77.112611
133,1694,Rajokari Crossing NH-8,28.523139,77.099001
133,1695,Shiv Murti / Dwarka More,28.534898,77.108437
133,2067,Uppal Hotel,28.536237,77.102112
133,591,Samalkha Crossing,28.538205,77.091434
133,592,Puspanjali G Block,28.54226267,77.07354592
133,593,Dwarka Road,28.544217,77.065083
133,594,Bharthal Under Pass,28.547567,77.057117
133,595,Dwarka Sec-21 Metro Station,28.5519186,77.0566312
133,596,Dwarka Sec-21 Crossing,28.55411,77.05858
133,597,Dwarka Sec 22 Vivanta Hotel,28.558065,77.061889
133,598,Dwarka Sec-20/21 Crossing,28.5639249,77.0627421
133,604,Dwarka Sec8,28.56852,77.06788
133,605,Bagdola Village,28.57252,77.06916
133,606,Dwarka Sec8 DTC Depot,28.5758,77.07134
133,607,National Malariya Research Centre (Dwarka),28.5765,77.07594
133,608,Dada Dev Mandir,28.57818,77.07708
133,609,National Malariya Research Centre (Dwarka),28.57876,77.07616
133,610,Royal Residency (Dwarka),28.5815,77.0703
133,611,Munirka Flats (Dwarka),28.58367,77.06701
133,507,Princess Park/ Airforce Noval Office Enclave,28.587688,77.066452
133,508,Dwarka Sec-6/7,28.59126,77.069535
133,509,Dwarka Sec-6 Telephone Exchange,28.593228,77.070994
133,612,Dwarka Sec 1,28.594499,77.073519
133,510,Maharaja Agrasen Hospital Dwarka,28.593101,77.079538
133,613,Sulabh International Centre,28.59687,77.080944
133,614,Mahaveer Enclave III,28.60084,77.08199
133,615,Dashrath Puri,28.60353,77.08266
133,616,Vijay Enclave (Palam-Dabri Road),28.60654,77.08111
133,617,Dabri Village,28.608043,77.081954
133,618,Dabri Crossing Dwarka Road,28.61283325,77.08609111
133,619,C2D Janakpuri,28.61446,77.086985
133,620,C4E Janakpuri,28.616659,77.087976
133,621,C2B Janak Puri,28.621222,77.088818
133,622,Bharti College,28.62235,77.09365
133,623,Virender Nagar / Dilli Haat,28.6232,77.09615
133,624,Hari Nagar Depot,28.62541,77.10109
133,625,G Block Hari Nagar,28.627917,77.100067
133,626,Fateh Nagar,28.631133,77.098567
133,627,Tilak Nagar Jail Road,28.635737,77.096692
133,2511,Sant Pura Tilak Nagar,28.638917,77.100467
133,2512,Meenakshi Garden,28.64025,77.103933
133,2513,Subhash Nagar Crossing / Mukherji Park,28.642283,77.10905
133,3034,Tagore Garden Metro Station / Tatarpur,28.644193,77.113304
133,2514,Tagore Garden,28.645765,77.115832
133,2515,Rajouri Garden,28.648433,77.120783
133,2516,Raja Garden,28.6513,77.1266
133,2517,Bali Nagar,28.6523,77.129183
133,2518,Basai Darapur / Ramesh Nagar,28.653,77.1323
133,2519,Kirti Nagar,28.654783,77.136667
133,2520,Moti Nagar Market,28.657233,77.14125
133,2521,Moti Nagar,28.658867,77.144183
133,1646,ESI Dispensary/CGHS Dispensary,28.660583,77.147367
133,1858,Campa Cola,28.6628,77.1535
133,2967,Swatantra Bharat Mills,28.663528,77.155197
133,1859,DCM Chemical,28.665367,77.159933
133,1860,Zakhira,28.668,77.164283
133,1861,Inderlok,28.6714,77.1672
133,684,Inderlok Metro Station,28.673633,77.168983
231,146,Najafgarh Terminal,28.614614,76.978024
231,148,Jharoda Crossing,28.61448074,76.98106202
231,149,Health Centre,28.61415,76.985217
231,488,NajafGarh Delhi Gate,28.611746,76.985721
231,489,Chawla Stand Najafgarh,28.607056,76.986005
231,490,BDO Office,28.600879,76.988758
231,491,Durga Vihar,28.59664,76.99046
231,492,Deenpur Village,28.594055,76.991774
231,493,Goela Dairy Crossing,28.591726,76.992969
231,1166,Jhatikara Crossing,28.584508,76.995742
231,1167,Rewla Taj Pur More,28.577927,76.996696
231,1168,Chhawla School,28.565889,77.000619
231,1246,Chhawla Village,28.561283,77.002168
231,1247,Sumesh Vihar,28.557759,77.004508
231,1248,BSF Camp Chhawla,28.554147,77.006475
231,1249,BSF Campus Chhawla,28.547741,77.00935
231,1250,Toll Tax Post,28.543378,77.012818
231,1251,Bamnoli Power Station,28.54218,77.017987
231,1252,Bamnoli Crossing,28.53919,77.030335
231,1253,Bijwasan Railway Station,28.535596,77.04381
231,1255,Shri Golok Dham Bijwasan School,28.533823,77.059292
231,1257,Kapashera Village Bijwasan Road,28.527671,77.076297
231,1258,Kapashera More,28.53005,77.086897
231,589,Kapashera Crossing,28.531234,77.088154
231,590,Samalkha Village,28.534492,77.090371
231,1259,Samalkha Crossing,28.537955,77.093708
231,1260,Uppal Hotel,28.537233,77.102493
231,1261,Shiv Murti (NH-8),28.535299,77.10847
231,1262,Rang Puri (NH-8 Circle),28.543865,77.117712
231,2101,Mahipal Pur (NH-8),28.5480236,77.1251508
231,1263,Mahipal Pur (NH-8),28.548041,77.125184
231,1264,Shankar Vihar NH-8,28.566684,77.133985
231,1265,APS Colony/ Jharera Gaon,28.579967,77.144817
231,1266,Air Force HQ / Subroto Park,28.584133,77.146033
231,1267,Maharana Pratap Chowk,28.588067,77.1509
231,1268,RR Hospital,28.590067,77.155817
231,191,Dhaula Kuan,28.592987,77.162865
231,1549,Officer Enclave S.P Marg,28.597241,77.171473
231,1550,Bapu Dham,28.599196,77.175168
231,1551,Railway Colony (Sardar Patel Marg),28.600686,77.177964
231,1552,Bhartiya Sadhu Samaj,28.603864,77.184052
231,1553,Palika Kutumb,28.60751,77.188687
231,1554,11 Murti,28.611132,77.190671
231,1555,Talkatora Stadium,28.621202,77.193727
231,1670,Dr. RML Hospital,28.6226,77.1966
231,1283,RML Hospital,28.624591,77.198013
231,1284,Talkatora Road,28.623281,77.201586
231,1285,Gurudwara Rakab Gunj,28.621164,77.20521
231,1286,Kendriya Terminal (Pt. Pant Marg),28.621545,77.206233
231,1287,NDPO,28.62548,77.2065
231,1556,Gurudwara Bangla Sahib,28.625396,77.209524
231,1672,Patel Chowk,28.6244,77.2112
231,1675,Firoz Shah Road,28.6208,77.2206
231,1676,Kasturba Gandhi Crossing,28.6234,77.2266
231,2578,Mandi House,28.624991,77.230118
231,1293,Mandi House,28.6258,77.2343
231,1294,Tilak Bridge,28.6255,77.2397
231,353,ITO (Agarwal Chowk),28.629065,77.241192
231,354,Express Building,28.633864,77.240804
231,355,Delhi Gate / Ambedkar Stadium,28.638817,77.241013
231,1677,Delhi Gate / Ambedkar Stadium Terminal,28.639826,77.243667
231,441,Gandhi Darshan,28.636983,77.247267
231,1680,Delhi Sachivalaya (Rajghat Power House),28.63801932,77.2526922
4,368,Samaspur Khalsa,28.57907893,76.91009645
4,1735,Jaffarpur Kalan RTRM Hospital,28.59471822,76.9151624
4,370,Rawta Crossing (Dhansa Road),28.60040378,76.91611066
4,371,Surehra Crossing,28.60448,76.932397
4,372,Mitraon School,28.607252,76.939754
4,4347,Mitraon Village,28.60824048,76.9473751
4,375,Indra Service Station,28.608858,76.959974
4,376,Nanak Piyau,28.609487,76.967851
4,377,Prem Nursary,28.610354,76.971259
4,378,Khera More / Ghuman Hera Crossing,28.61113002,76.97445974
4,22519,Nazafgarh Dhansa More,28.612021,76.978565
4,148,Jharoda Crossing,28.61448074,76.98106202
4,235,Dichau Chowk,28.617676,76.984284
4,236,Udaseen Ashram,28.621747,76.98804
4,237,Nirmal Vihar,28.625259,76.992196
4,238,Dichau Kalan Depot,28.629304,76.997733
1,3757,Rohini Sec 22 Terminal,28.718025,77.0638
1,3758,Aggarsain Hospital (Rohini Sec 22),28.71915,77.064782
1,981,Rohini Sec-21,28.7188,77.069767
1,406,Pooth Kalan,28.714257,77.076933
1,984,Brahm Shakti Hospital,28.712372,77.080713
1,985,Buddh Vihar,28.706783,77.084171
1,403,Krishna Vihar,28.704528,77.086895
1,987,Mangol Puri Y Block,28.702762,77.089612
1,988,Mangol Pur Khurd,28.700117,77.094277
1,989,Avantika Xing,28.698384,77.097225
1,990,Mangolpur Kalan Village,28.695671,77.101095
1,5028,Mangol Pur School (Kanjhawla Road),28.69459079,77.10552628
1,2152,Mangol Puri B Block (ORR),28.689596,77.096796
1,1493,Peera Garhi Metro Station,28.679663,77.091766
1,1494,Udyog Nagar,28.679947,77.089403
1,1495,Inder Enclave,28.680544,77.084075
1,1496,Jwala Puri / Nangloi Depot,28.681143,77.078896
1,1497,Surajmal Stadium,28.681821,77.07291
1,1498,Sultanpuri Crossing,28.681881,77.069255
1,2153,Nangloi (Najafgarh Road),28.681819,77.067554
1,1499,Nangloi Metro Station,28.681943,77.064075
1,1500,Nangloi JJ Colony Lokesh Cinema,28.682093,77.058859
1,1501,Qamruddin Nagar Terminal,28.682061,77.054037
1,1898,Rajdhani Park,28.682077,77.048164
1,1899,Swarn Park,28.682159,77.041037
1,1900,Mundka Village Crossing,28.682199,77.036078
1,1901,Mundka Village Metro Station,28.68226071,77.03009889
1,3167,Mundka School (Rani Khera Road),28.683241,77.02768
1,3168,Friends Enclave Mundka,28.686538,77.025783
1,3169,Mundka Railway Station,28.691426,77.027617
1,1241,Rani Khera Depot Crossing,28.698024,77.027903
1,2798,Rani Khera Depot III,28.69801522,77.03387672
151,770,Anand Vihar ISBT Terminal,28.646328,77.314904
151,771,Ram Prastha Crossing,28.660523,77.319926
151,772,Ram Prastha Temple,28.663552,77.320362
151,773,Surya Nagar (Gazipur Road),28.666954,77.321483
151,774,Shahdara Border GT Road,28.676241,77.321331
151,775,Jhilmil Xing,28.676186,77.317518
151,776,Dilshad Garden GT Road,28.675883,77.3118
151,777,Telephone Exchange,28.675817,77.309217
151,778,Mansarovar Park Metro Station,28.675479,77.300119
151,113,Shahdara (Shyam Lal College),28.67304344,77.28274875
151,779,Welcome Colony Metro Station,28.672,77.275
151,780,Welcome Colony,28.67179881,77.27337996
151,781,Seelampur Metro Station,28.670722,77.266485
151,782,Dharam Pura,28.670717,77.261917
151,784,Shastri Park,28.673195,77.251804
151,785,Shyam Giri Mandir,28.67382,77.248024
151,786,Shastri Park DMRC Depot,28.674167,77.243433
151,787,Shastri Park Metro Depot,28.673433,77.241183
151,788,ISBT Bridge,28.6692301,77.228774
151,300,ISBT Nityanand Marg,28.668479,77.226269
151,669,Tees Hazari Court,28.666662,77.21926
151,670,St Stephen Hospital,28.6671,77.2149
151,671,Ice Factory (Rani Jhansi Road),28.666336,77.208872
151,4145,Azad Market,28.6647,77.2084
151,790,Bara Hindu Rao,28.660752,77.204049
151,791,Model Basti,28.657229,77.203685
151,792,Guru Govind Singh Marg,28.655331,77.198831
151,793,Tibiya College,28.65754,77.194648
151,794,Ram Jas Road,28.659086,77.191154
151,795,Liberty Cinema,28.659825,77.188866
151,796,Sarai Rohilla Govt Qtrs (Rohtak Road),28.661182,77.185019
151,797,Sarai Rohila (Rohtak Road),28.662538,77.182083
151,798,Anand Parvat Industrial Area,28.665198,77.174292
151,799,Daya Basti Flyover,28.666349,77.170126
151,800,Zakhira Flyover,28.668391,77.165402
151,801,Ashok Park Main,28.671287,77.156585
151,802,Ram Pura,28.671806,77.15387
151,803,Punjabi Bagh West Power House,28.672782,77.146897
151,804,Punjabi Bagh Terminal (Rohtak Road),28.673121,77.143689
238,513,Shivaji Stadium Terminal,28.632763,77.215806
238,830,Super Bazar,28.632651,77.223088
238,1290,Statesman House,28.6306,77.2238
238,1291,Barakhamba Metro Station,28.6297,77.2252
238,1292,Modern School,28.6278,77.2285
238,1293,Mandi House,28.6258,77.2343
238,1294,Tilak Bridge,28.6255,77.2397
238,4296,ITO,28.628217,77.24505
238,1114,Delhi Secretariat,28.6283,77.2514
238,1115,Rainy Well,28.628317,77.26065
238,1116,Laxmi Nagar / Shakarpur Crossing,28.6297,77.277067
238,1117,Shakarpur School Block,28.627433,77.279283
238,1118,Ganesh Nagar,28.621017,77.285233
238,1119,Mother Dairy,28.6191,77.286333
238,1120,Patparganj,28.6164001,77.2881001
238,1121,P S Pandav Nagar,28.6147,77.2903
238,1122,Shashi Garden Xing,28.6136,77.2941
238,1123,Pocket-5 Mayur Vihar Ph-1,28.6133,77.2956
238,1124,ITI Khichiripur,28.613,77.2977
238,1125,Kotla Village,28.6132,77.302
238,1126,Trilokpuri 13 Block,28.612817,77.306183
238,4486,Trilok Puri 16 Block,28.611969,77.307973
238,4487,Trilok Puri Crossing,28.604198,77.311012
238,4488,Dharamshila Hospital,28.602233,77.31365
238,4489,Satyam/Doctors Apartments,28.598683,77.31885
238,4490,Highland Apartments,28.599363,77.32145
238,4491,Multi Gym,28.601317,77.324867
238,1133,Mayur Vihar Phase 3 Crossing,28.6018,77.32735
238,1134,New Kondali A1 Crossing,28.602967,77.329133
238,1135,Bharti Public School,28.606133,77.333967
238,1136,Mayur Vihar Phase III A1 Block,28.608717,77.33715
238,1137,CRPF Camp,28.611833,77.339833
238,2387,Mayur Vihar Phase III (T) Paper Market,28.61809348,77.33575426
159,3144,Khera Khurd Village,28.774073,77.102444
159,3145,Rishi Dharmarth Chikitsalaya,28.774034,77.104084
159,3146,Khera Kalan Gaon,28.772384,77.115238
159,3147,Khera Kalan School,28.771996,77.117688
159,3148,Khera Garhi,28.772102,77.121948
159,3149,Nangli Poona More,28.771942,77.142956
159,586,Gurudwara Siraspur GT Road,28.764956,77.146126
159,23,Swaroop Nagar GT Road,28.758318,77.148305
159,24,Libas Pur GT Road,28.75027,77.15075
159,25,Sanjay Gandhi Transport Nagar,28.7402,77.154
159,26,Mukarba Chowk,28.735084,77.155874
159,27,GTK Depot,28.731117,77.158967
159,28,Jahangirpuri GT Road (Metro Station),28.7257,77.163
159,29,Mahindra Park,28.721715,77.166162
159,30,Sarai Pipal Thala,28.7206,77.1671
159,31,Adarsh Nagar Metro Station,28.717467,77.169917
159,32,New Sabzi Mandi,28.714415,77.172422
159,951,Azadpur Terminal,28.707667,77.180271
159,952,Model Town III,28.706127,77.185301
159,953,Model Town II,28.704282,77.190629
159,954,Alpana Cinema (Model Town Mtr Stn),28.703017,77.193837
159,3861,Nanak Piyau / DTC Colony,28.69105,77.19278333
159,39,Rana Pratap Bagh,28.68826667,77.1937
159,40,Gur Mandi,28.6848,77.1963
159,41,Roop Nagar / Shakti Nagar (GT Road),28.682832,77.197614
159,42,Clock Tower,28.677617,77.201567
159,43,Roshnara Bagh,28.6733,77.2018
159,44,Roshnara Road,28.669249,77.20455
159,936,Ice Factory (Rani Jhansi Road),28.667228,77.209036
159,46,St Stephen Hospital,28.667356,77.215047
159,47,Tees Hazari Court,28.666864,77.218926
159,22522,Mori Gate Terminal,28.665824,77.222057
6,1585,Old Delhi Railway Station,28.66030866,77.22830103
6,957,Red Fort,28.65808,77.236946
6,958,Jama Masjid,28.650847,77.238458
6,959,Darya Ganj Golcha Cinema,28.644152,77.240425
6,960,Delhi Gate (JLN Marg),28.639959,77.238071
6,961,LNJP Hospital,28.6401,77.234817
6,962,Zakir Husain College,28.641133,77.229676
6,963,JLN Marg,28.6421,77.22785
6,1035,PS Kamla Market,28.643042,77.226021
6,1036,Ajmeri Gate / Kamla Market,28.644083,77.22405
6,1641,Dispensary Paharganj,28.6449,77.2135
6,1642,Police Station Paharganj,28.646088,77.208137
6,2709,Rani Jhansi Road Jhande Walan,28.6456,77.205
6,520,Meghdoot Bhawan,28.643667,77.201033
6,2048,Karol Bagh Gurgaon Stand,28.64376,77.19701
6,2049,Ravinder Rangshala,28.640833,77.19515
6,2050,CPRTI,28.63743333,77.19278333
6,2051,Ridge Road,28.6326953,77.1890118
6,2052,R Block Rajinder Nagar,28.6234,77.18031667
6,2053,Buddha Jayanti Park,28.615091,77.175218
6,2054,APS School Dhaula Kuan,28.601533,77.168417
6,884,Dhaula Kuan,28.592721,77.163492
6,1687,RR Hospital / Maharana Pratap Chowk,28.59015,77.15675
6,1688,Air Force HQ / Subroto Park,28.583678,77.146096
6,1689,APS Colony/ Jharera Gaon,28.579433,77.145
6,2413,APS Colony,28.574431,77.142057
6,4379,Shankar Vihar / National Highway 8,28.566514,77.134394
6,1691,Mahipal Pur Crossing NH-8,28.545775,77.123056
6,1692,Rang Puri (NH-8),28.541953,77.118268
6,1693,Shiv Murti,28.535769,77.112611
6,1694,Rajokari Crossing NH-8,28.523139,77.099001
6,1695,Shiv Murti / Dwarka More,28.534898,77.108437
6,2067,Uppal Hotel,28.536237,77.102112
6,1696,Samalkha Crossing,28.537322,77.092137
6,1697,Samalkha Village,28.534542,77.090534
6,2257,Kapashera More (Najafgarh Road),28.530644,77.086237
6,2258,Kapashera Village Bijwasan Road,28.52759,77.076229
6,2259,Shri Golok Dham Bijwasan School,28.533565,77.059594
6,2414,Palam Vihar Crossing,28.532531,77.052948
6,2260,Bijwasan Railway Station,28.53551,77.043612
6,2022,Bamnoli Crossing,28.539219,77.02981
6,2023,Bamnoli Power Station,28.5421,77.017939
6,2024,Toll Tax Post,28.543484,77.012062
6,2025,BSF Campus Chhawla,28.547917,77.009152
6,2026,BSF Camp Chhawla,28.554271,77.006304
6,2027,Sumesh Vihar,28.557851,77.004374
6,2028,Chhawla Village,28.561234,77.002151
6,2029,Chhawla School,28.566798,77.000183
6,2030,Rewla Taj Pur More,28.578209,76.996491
6,1967,Jhatikara Crossing,28.58579,76.995161
6,228,Goela Dairy Crossing,28.591721,76.992877
6,229,Deenpur Village,28.593389,76.991941
6,230,Durga Vihar,28.596621,76.990298
6,231,BDO Office,28.600768,76.988661
6,232,Chhawla Stand Najafgarh,28.60799,76.985536
6,233,Police Station NajafGarh,28.61031861,76.98133766
6,2031,Najafgarh Dhansa More,28.611458,76.979153
6,379,Jharoda Crossing Jharoda Road,28.6137657,76.97936262
6,380,NajafGarh Terminal,28.61483116,76.97724911
92,2547,Nand Nagari Terminal,28.691271,77.310161
92,2548,Nand Nagari E-Block,28.693817,77.3139
92,1750,Gagan Cinema,28.695745,77.315146
92,1751,Gagan Cinema (Wazirabad Road),28.697499,77.314785
92,1752,Bank Colony,28.698102,77.311463
92,1753,Nand Nagri Depot,28.698972,77.306183
92,22587,Ashok Nagar / Meet Nagar,28.700097,77.297869
92,1755,MIG Flates Loni Road,28.700502,77.295585
92,2550,B R Ambedkar College (Loni Road Xing),28.701297,77.28852
92,805,C 4 Yamuna Vihar,28.702199,77.278463
92,806,Yamuna Vihar Brijpuri,28.702588,77.273744
92,807,B-Block Yamuna Vihar,28.702752,77.271309
92,4411,Bhajanpura,28.703406,77.26393
92,2552,Khajuri,28.704661,77.25441
92,2553,Rajeev Nagar (Signature Bridge),28.704951,77.248677
92,2554,Gurudwara Nanak Sar Crossing (Signature Bridge),28.704867,77.2471
92,2555,Nehru Vihar Xing,28.708883,77.225983
92,2556,Police Station Timarpur,28.70745,77.22441667
92,2557,Balak Ram Hospital,28.704925,77.223087
92,2558,Timarpur,28.700681,77.221232
92,2559,Banarsi Daas Estate Timarpur,28.697403,77.220567
92,2560,Mall Road,28.693917,77.219883
92,294,Khyber Pass,28.690202,77.221419
92,295,Vidhan Sabha Metro Station,28.687634,77.221672
92,296,Old Secretariat (Postal Account Office),28.683891,77.222282
92,297,IP College,28.679703,77.223955
92,956,Exchange Store / Civil Lines Metro Station,28.676617,77.225033
92,299,Ludlow Castle,28.672405,77.226008
92,108,ISBT Kashmere Gate (Lothian Road),28.665616,77.230079
92,109,Guru Govind Singh University (Kashmere Gate),28.665677,77.230238
92,110,GPO,28.661738,77.235311
92,957,Red Fort,28.65808,77.236946
92,958,Jama Masjid,28.650847,77.238458
92,959,Darya Ganj Golcha Cinema,28.644152,77.240425
92,1677,Delhi Gate / Ambedkar Stadium Terminal,28.639826,77.243667
92,441,Gandhi Darshan,28.636983,77.247267
92,1678,Indira Gandhi Stadium,28.6328,77.2472
92,443,IP Power House (ITO Ring Road),28.624078,77.247687
92,444,Indraprastha Depot,28.6195,77.249
92,445,Pragati Power Station,28.616,77.2501
92,446,Railway Road Bridge,28.610753,77.2517899
92,447,Nizamuddin Road Bridge,28.603408,77.254218
92,448,ISBT Sarai Kale Khan,28.5908681,77.2581704
240,904,Tilak Nagar Terminal,28.63632354,77.09574386
240,629,Janak Puri Check Post,28.63385875,77.08882985
240,630,B2A Janakpuri,28.632306,77.084585
240,631,Janak Puri District Centre,28.630488,77.080047
240,632,Dholi Piao,28.629119,77.076482
240,633,Vikaspuri Crossing,28.626449,77.06969
240,634,Uttam Nagar Terminal,28.624597,77.06498
240,905,Uttam Nagar,28.623129,77.061189
240,906,Prem Nagar,28.621893,77.056719
240,907,Om Vihar,28.621079,77.052669
240,2462,Kiran Garden,28.620523,77.048462
240,909,Nawada,28.620222,77.04552
240,910,Mohan Garden,28.62004935,77.03916296
240,911,Sewak Park Dwarka More Metro Station,28.619263,77.033731
240,651,Kakrola More,28.61892598,77.02958463
240,652,Kakrola Bridge,28.619809,77.024876
240,653,Nangli Dairy,28.61970089,77.01766538
240,654,Chhathh Ghat Park,28.618803,77.015219
240,655,Arjun Park,28.618083,77.013083
240,22568,Nangli Sakrawati Crossing,28.616222,77.007486
240,657,Nangli Sakrawati,28.61463009,77.00390399
240,658,Sai Baba Mandir,28.613536,76.999497
240,659,Power House NajafGarh,28.612929,76.995552
240,660,Tuda Mandi,28.6125091,76.99236002
240,488,NajafGarh Delhi Gate,28.611746,76.985721
240,233,Police Station NajafGarh,28.61031861,76.98133766
240,915,Dhansa Stand,28.61149114,76.97790955
240,916,Khera More,28.610938,76.97401
240,2844,Prem Nursary,28.61016589,76.97130124
240,918,Nanak Piyau,28.60917792,76.96715712
240,919,Indra Service Station,28.60854181,76.95877826
240,920,Mitraon Crossing,28.60811461,76.95117225
240,921,Mitraon Village,28.60806819,76.94732433
240,71,Mitraon School,28.607199,76.939964
240,72,Surehra Crossing,28.60425122,76.93243765
240,2996,Rawta Crossing (Dhansa Road),28.59996,76.914581
240,74,Jaffarpur Kalan RTRM Hospital,28.5948401,76.91534756
240,75,Samaspur Khalsa,28.578394,76.909982
240,2997,Ujwa School,28.5733842,76.9083067
240,1389,Ujwa Gaon,28.568773,76.906807
240,364,Malik Pur Village Crossing,28.552333,76.907483
240,3829,Malik Pur Village,28.552417,76.902717
31,3785,Nanak Heri Village,28.52099,76.986079
31,3786,Nanak Heri School,28.52407,76.986381
31,3787,Badu Sarai Village,28.52973,76.986455
31,3788,Kangan Heri - II,28.545251,76.987725
31,3370,Kangan Heri - I,28.548397,76.98869
31,3371,Rishal Vihar,28.553603,76.992783
31,2028,Chhawla Village,28.561234,77.002151
31,2030,Rewla Taj Pur More,28.578209,76.996491
31,569,Jhatikra Crossing Pandwala Road,28.58463829,76.99505282
31,3106,Rewla Khanpur Crossing,28.572151,76.980825
31,571,Purani Basti Rewla Khanpur,28.569584,76.977685
31,572,Rewla Khanpur Depot,28.56867407,76.97671441
68,752,Bawana Sec 1 Cluster Depot,28.79500536,77.04113605
68,1146,Bawana Soap Factory,28.8018412,77.03929
68,1147,Bawana Dispensary,28.80095,77.03738
68,1148,Bawana Village Chowk,28.799973,77.03552
68,1312,Bawana Village,28.800311,77.035267
148,1988,Rohini Sec 23 (Green Hill Aptt.),28.71927704,77.08437287
148,1989,Rohini Sec 24 Dear Satguru Sewaram Crossing,28.72832035,77.09231807
148,1990,Dera Satguru Sewaram Sahai Sec 24/25 Crossing,28.729924,77.094619
148,3643,Sec-24 Rohini Main Road,28.7271,77.0986
148,1991,Rithala Village,28.725413,77.101244
148,1992,Pal Colony,28.723894,77.103422
148,1993,Rithala Metro Station,28.7198,77.108584
148,1994,Rohini Depot 1 Sec 6,28.71645,77.113467
148,1995,Rohini West Metro Station,28.7154,77.1147
148,1996,Rohini Sec-9 /7,28.7138,77.1172
148,1997,Rohini Sec-9,28.711805,77.120144
148,1998,Rohini Sec 7 and 8 Crossing,28.708306,77.125246
148,1999,Fire Station Sec-8,28.707061,77.127011
148,2000,Madhuvan Chowk,28.705196,77.129655
148,2605,Madhuban Chowk Pitampura Metro Stn,28.702623,77.132828
148,2606,Pitampura JD Block,28.701974,77.134322
148,2607,Vaishali Enclave / Kapil Vihar,28.699828,77.137505
148,2608,Kohat Enclave Metro Station,28.697347,77.142158
148,2609,Pitampura ND Block,28.695909,77.145887
148,2009,Netaji Subhash Palace (Wazirpur Depot) Road No 41,28.694143,77.151048
148,4346,Wazirpur Depot / Subhash Place Depot,28.69485,77.15485
148,3644,Prembari Pul,28.697411,77.15723
148,3250,B4 Keshav Puram,28.68755,77.1625
148,3251,B3 Keshav Puram,28.685683,77.163383
148,3252,Kanhaiya Nagar,28.6812,77.165533
148,22601,Shanti Nagar / Tri Nagar,28.679033,77.166517
148,2835,Inderlok Metro Station,28.673217,77.169483
148,2968,Shastri Nagar Shiv Mandir,28.6717,77.1732
148,1862,Shastri Nagar E Block,28.671267,77.176283
148,1863,Shastri Nagar Metro Station,28.670231,77.181136
148,1864,Subhadra Colony,28.6712,77.18405
148,1865,Shastri Nagar A Block,28.67305,77.186467
148,1866,Gulabi Bagh,28.675,77.1883
148,1867,Chowki No 2 / Gulabi Bagh Crossing,28.67698333,77.1889
148,1868,Shakti Nagar Nangia Park,28.68035,77.196233
148,42,Clock Tower,28.677617,77.201567
148,43,Roshnara Bagh,28.6733,77.2018
148,44,Roshnara Road,28.669249,77.20455
148,936,Ice Factory (Rani Jhansi Road),28.667228,77.209036
148,46,St Stephen Hospital,28.667356,77.215047
148,47,Tees Hazari Court,28.666864,77.218926
148,48,ISBT Nityanand Marg,28.668328,77.225017
148,108,ISBT Kashmere Gate (Lothian Road),28.665616,77.230079
148,109,Guru Govind Singh University (Kashmere Gate),28.665677,77.230238
148,110,GPO,28.661738,77.235311
148,111,Old Delhi Railway Station (T),28.66005068,77.22789212
242,573,Tikri Khurd,28.835983,77.123838
242,574,Tikri Khurd Crossing / AMPC,28.836177,77.12839
242,575,Tikri Khurd Crossing / AMPC,28.835604,77.128935
242,576,Khampur Village,28.824476,77.132311
242,22602,NIT GT Road,28.81655118,77.13487441
242,577,Bakauli Village (GT Road),28.810288,77.137092
242,3158,Shani Mandir / Palla Crossing,28.803971,77.143083
242,579,Pwd Office,28.8012,77.138967
242,580,Alipur Village GT Road,28.796617,77.1396
242,934,Mcd Store,28.793717,77.142333
242,581,Jind Pur Crossing,28.793233,77.14415
242,582,Sai Mandir,28.78865,77.141467
242,583,Budhpur GT Road,28.782107,77.141601
242,584,Jain Mandir,28.77715,77.142633
242,585,Nangli Poona (GT Road),28.774167,77.143267
242,586,Gurudwara Siraspur GT Road,28.764956,77.146126
242,23,Swaroop Nagar GT Road,28.758318,77.148305
242,24,Libas Pur GT Road,28.75027,77.15075
242,25,Sanjay Gandhi Transport Nagar,28.7402,77.154
242,27,GTK Depot,28.731117,77.158967
66,4065,Shaheed Bhagat Singh Colony Karawal Nagar,28.732967,77.26025
66,4066,Sabhapur Crossing,28.729133,77.2597
66,4067,Titiksha Public School,28.72505,77.259117
66,4068,Delhi Police Training School,28.72145,77.258583
66,4069,CRPF Camp,28.716733,77.25785
66,4070,Bihari Pur Gaon,28.713817,77.2575
66,4071,Khajuri School,28.7114,77.25715
66,809,Khajuri,28.7039,77.2562
66,810,Garhi Maidu,28.6992,77.255533
66,811,Gamri Extn Pusta No.5,28.695121,77.254951
66,812,Kartar Nagar,28.68945,77.254167
66,813,Jagjit Nagar,28.686317,77.254567
66,814,Pusta No-2,28.683767,77.255217
66,815,New Usman Pur Pusta No-1,28.679983,77.256183
66,816,Zero Pusta,28.6778,77.256783
66,817,Shastri Park Pusta Road,28.674017,77.2563
66,784,Shastri Park,28.673195,77.251804
66,785,Shyam Giri Mandir,28.67382,77.248024
66,786,Shastri Park DMRC Depot,28.674167,77.243433
66,787,Shastri Park Metro Depot,28.673433,77.241183
66,788,ISBT Bridge,28.6692301,77.228774
66,300,ISBT Nityanand Marg,28.668479,77.226269
66,22522,Mori Gate Terminal,28.665824,77.222057
66,1951,Novelty Cinema,28.6614,77.2211
66,1585,Old Delhi Railway Station,28.66030866,77.22830103
166,2797,Bharthal Village,28.540209,77.050937
166,2616,Bharthal Village (Shyam Mandir),28.543017,77.043635
166,2661,Dwarka Sec 22 Cluster Depot,28.5542467,77.0522743
166,2621,Bharthal Under Pass,28.5476,77.057417
166,2622,Dwarka Road,28.544483,77.064933
166,2623,Puspanjali G Block,28.5426812,77.07393984
166,1259,Samalkha Crossing,28.537955,77.093708
166,1260,Uppal Hotel,28.537233,77.102493
166,1261,Shiv Murti (NH-8),28.535299,77.10847
166,1262,Rang Puri (NH-8 Circle),28.543865,77.117712
166,2101,Mahipal Pur (NH-8),28.5480236,77.1251508
166,1263,Mahipal Pur (NH-8),28.548041,77.125184
166,1264,Shankar Vihar NH-8,28.566684,77.133985
166,1217,Kendriya Vidhyalaya APS Colony,28.57474789,77.14098647
166,1265,APS Colony/ Jharera Gaon,28.579967,77.144817
166,1266,Air Force HQ / Subroto Park,28.584133,77.146033
166,1268,RR Hospital,28.590067,77.155817
166,191,Dhaula Kuan,28.592987,77.162865
166,1269,Air Force Officers Flats Dhaula Kuan,28.600967,77.167867
166,1270,Budha Jayanti Park,28.61538,77.17517
166,1271,R Block Rajinder Nagar,28.62339,77.18004
166,1272,Ridge Road,28.632683,77.18875
166,1273,CPRTI/ Delhi Jal Board,28.63715,77.1924
166,1274,Ravinder Rangshala,28.6409235,77.1949641
166,1275,Karol Bagh Gurgaon Stand,28.643833,77.1969
166,3728,Faiz Road,28.6495,77.1998
166,3645,Guru Govind Singh Crossing (Faiz Road),28.653054,77.202311
166,2289,Filmistan,28.659639,77.202922
166,2290,Bara Hindu Rao,28.66126594,77.20404119
166,2291,Azad Market,28.663272,77.207209
166,2292,Ice Factory (Rani Jhansi Road),28.667634,77.210788
166,46,St Stephen Hospital,28.667356,77.215047
166,47,Tees Hazari Court,28.666864,77.218926
166,22522,Mori Gate Terminal,28.665824,77.222057
19,1680,Delhi Sachivalaya (Rajghat Power House),28.63801932,77.2526922
19,440,Rajghat Gandhi Darshan,28.6389,77.2502
19,1854,Delhi Gate / Ambedkar Stadium Terminal,28.639661,77.243789
19,2447,Delhi Gate,28.637446,77.241206
19,2448,Shaheed Park (Bhagat Singh Terminal),28.635077,77.241157
19,2449,ITO,28.629204,77.241471
19,135,Tilak Bridge,28.6253,77.2387
19,136,Mandi House,28.625633,77.234
19,137,Mandi House,28.625035,77.230571
19,138,Kasturba Gandhi Road Crossing,28.623228,77.226725
19,139,Firoz Shah Road,28.621,77.2215
19,140,Le Meridian Hotel / Rajendra Prasad Road,28.619225,77.217521
19,141,Krishi Bhawan,28.616983,77.2137
19,142,Red Cross Road,28.618035,77.210453
19,143,Aakashwani Bhawan (Imtiyaz Ali Road),28.62065,77.2098
19,144,Gurudwara Rakab Ganj Road,28.6209,77.2073
19,874,Kendriya Terminal / Gurudwara Rakab Gunj,28.621017,77.205283
19,875,Talkatora Road,28.6222,77.2031
19,876,Dr. RML Hospital,28.6223961,77.1965567
19,877,Talkatora Stadium Garden,28.6212541,77.1942054
19,878,Sardar Patel Road Xing (11 Murti),28.611,77.1908
19,879,Palika Kutumb,28.6078,77.1891
19,880,Bhartiya Sadhu Samaj,28.603917,77.1845
19,881,Railway Colony (Sardar Patel Marg),28.600783,77.1785
19,882,Bapu Dham,28.5994,77.1758
19,883,Officer Enclave S.P Marg,28.597,77.1713
19,884,Dhaula Kuan,28.592721,77.163492
19,885,Golf Club,28.592403,77.159084
19,886,R R Line,28.59572,77.150948
19,2055,St. Martin School,28.596443,77.145582
19,2056,Sri Nagesh Garden,28.59655,77.14065
19,2057,Shastri Bazar,28.5965006,77.1355173
19,2058,Kabul Line,28.5978,77.1287
19,2059,Chhawani Hospital,28.59857,77.12434
19,2060,Sadar Bazar,28.595,77.1226
19,2061,Geeta Ashram,28.5919,77.1211
19,2062,Kendriya Vidhyalaya,28.5895,77.1198
19,2063,Blood Bank,28.586733,77.11845
19,2064,More Lines,28.583117,77.116617
19,3582,Indian Oil Station,28.577368,77.108868
19,3583,Prehlad Pur,28.579554,77.101708
19,3584,Palam Colony Flyover,28.581359,77.095829
19,3585,Dwarka Flyover Palam Village,28.583825,77.091504
19,637,Dwarka Crossing / Maharaja Agrasen Hospital,28.592833,77.079486
19,638,Dwarka Sec 1,28.594283,77.073867
19,639,J M International School,28.595421,77.070134
19,640,Dwarka Sec 2-6,28.597335,77.064944
19,641,Madhu Vihar,28.599779,77.061168
26,3925,Yamuna Vihar Cluster Depot,28.6986,77.271699
26,2575,Krishna Marg Kardam Puri,28.696783,77.28195
26,4355,Vijay Park / Kabir Nagar,28.69317,77.28014
26,2576,Babarpur Ext / Maujpur Metro Station,28.691973,77.279653
222,192,BBM Cluster Depot,28.704301,77.21131
222,193,Sewa Kutir,28.702162,77.209581
222,194,GTB Nagar / Haqiqat Nagar,28.698158,77.207636
222,195,INS Hostel,28.696197,77.21214
222,196,Vishwa Vidyalaya Metro Station,28.695022,77.215318
222,197,Mall Road,28.69382,77.218624
222,198,Banarsi Daas Estate Timarpur,28.69714,77.220359
222,199,Timarpur,28.701025,77.22127
222,200,Balak Ram Hospital,28.7054,77.22316667
222,201,Police Station Timarpur,28.706947,77.224038
222,202,Nehru Vihar Crossing,28.709086,77.22626
222,203,Wazirabad Crossing,28.711529,77.228752
222,204,Gurudwara Nanak Sar,28.710233,77.241367
222,205,Pusta No 1 Sonia Vihar,28.7189,77.24325
222,206,Pusta No 2 Sonia Vihar,28.721517,77.243867
222,207,Pusta No 3 Sonia Vihar,28.725583,77.2448
222,208,Gatta Factory Sonia Vihar,28.730183,77.24575
222,209,Sonia Vihar,28.7324,77.246233
222,210,Pusta No 5 Sonia Vihar,28.734583,77.246633
222,211,Check Post,28.739367,77.24745
222,212,Annpurna Mandir,28.74245,77.246567
222,213,Sabhapur More,28.750167,77.24385
222,214,Chauhan Patti (Terminal),28.754767,77.24325
14,3359,Ghoga Village,28.83063,77.04937
14,18,Sannoth Crossing / Ghoga Crossing,28.819549,77.06355
14,19,Delhi Jal Board Bawana,28.815434,77.058213
14,20,Jain Bekhunth Mandir,28.811811,77.053975
14,21,Bawana JJ Colony CRPF Camp,28.806738,77.048163
14,752,Bawana Sec 1 Cluster Depot,28.79500536,77.04113605
138,1585,Old Delhi Railway Station,28.66030866,77.22830103
138,748,GPO,28.661944,77.234569
138,749,Guru Govind Singh University (Kashmere Gate),28.665331,77.230123
138,1560,ISBT Kashmere Gate,28.667068,77.229274
138,300,ISBT Nityanand Marg,28.668479,77.226269
138,2124,Aruna Asaf Ali Hospital,28.66935,77.21739
138,2125,MCD Store (Rajpur Road),28.673296,77.216756
138,2126,Rajpur Road Transport Deptt,28.67902,77.21866
138,2127,PNB STA Road,28.678464,77.220946
138,2128,Exchange Store (Hill Road),28.67785,77.22305
138,1617,IP College,28.68017,77.223489
138,821,Old Secretariat (Postal Account Office),28.683783,77.222172
138,822,Vidhan Sabha Metro Station,28.687802,77.221442
138,823,Khyber Pass,28.690613,77.221168
138,824,Mall Road,28.693646,77.218432
138,825,Vishwa Vidyalaya Metro Station,28.695213,77.214096
138,826,INS Hostel,28.696149,77.211705
138,1583,GTB Nagar,28.698357,77.205678
138,2915,New Police Lines,28.699194,77.203386
138,2916,Alpana Cinema (Model Town Mtr Stn),28.70271,77.193708
138,2917,Model Town II,28.704042,77.190535
138,2918,Model Town III,28.705905,77.185185
138,2919,Azadpur Metro Station,28.707269,77.180917
138,239,Azadpur Terminal,28.707525,77.177797
138,1244,New Sabzi Mandi,28.7143,77.172217
138,241,Adarsh Nagar / Bharola Village,28.715917,77.170867
138,242,Sarai Peepal Thala,28.720417,77.166983
138,243,Mahindra Park,28.72153333,77.166
138,244,Jahangir Puri GT Road,28.7251,77.163217
138,245,Jahangir Puri Metro Station,28.7273,77.161583
138,246,GTK Depot,28.731183,77.158617
138,2143,Haiderpur Metro Station,28.7308471,77.14990378
138,2144,Badli Crossing,28.728354,77.14621
138,1004,Jail Road Rohini Sec 18,28.727265,77.143241
138,1005,Badli Village,28.731937,77.140125
138,1006,Rohini Sec 18 Block,28.735794,77.137389
138,1007,Rohini Sec 18,28.73884,77.135808
138,2739,Rohini Sec 18 Pocket A,28.740704,77.132838
138,3537,Rohini Sec 18 B-7 Road,28.743164,77.131729
138,2740,Rohini DTC Depot 4,28.744866,77.130226
138,2741,Sri Krishan Apartments,28.743846,77.126013
138,2742,Rohini Sec-16 Xing,28.744217,77.120593
138,2743,Delhi Engg College Shahbad,28.745292,77.116388
138,2744,Shahbad Daulatpur Gaon,28.745279,77.112086
138,2745,Shahbad Daulatpur School,28.745669,77.106847
138,2746,St Xavier School,28.745565,77.102837
138,2747,Shahbad Dairy Block A,28.745885,77.098541
138,2748,Shahbad Dairy,28.746647,77.0958
138,2749,Rohini Sec 27 and 30 Crossing,28.747792,77.089138
138,2357,Prehladpur Village,28.751012,77.081081
138,2358,Prehladpur School,28.75257,77.075612
138,2359,Jain Colony,28.75375,77.0728
138,3648,Rohini Sec 35,28.757266,77.066803
138,2360,Barwala School,28.759052,77.062701
138,2361,Barwala Village,28.760283,77.060436
138,2750,Poothkhurd Firni Road,28.76436,77.054918
138,2362,Sultan Pur Crossing / Poothkhurd,28.767917,77.049267
138,2363,Poothkhurd Village,28.772317,77.0489
138,2364,Maharishi Valmiki Hospital,28.775183,77.047367
138,2751,DSIDC Office Bawana,28.780528,77.043774
138,2365,Dhakewala Bawana,28.786105,77.041019
138,2366,Aditi College Bawana,28.794621,77.036256
138,2367,Bawana School,28.796201,77.035577
138,1312,Bawana Village,28.800311,77.035267
138,1313,Bawana Depot,28.803667,77.028517
138,1314,PS Bawana,28.806442,77.022952
138,1315,Dariyapur Kalan School Bawana,28.808879,77.014789
138,1317,Nangal Thakran,28.808899,77.007976
138,1318,Bajitpur Village,28.808368,77.003341
138,1319,Bajitpur Mandir,28.803187,76.997871
138,1320,Katewara Village,28.805048,76.976832
120,22573,Kendriya Terminal (Church Road),28.6175,77.203933
120,874,Kendriya Terminal / Gurudwara Rakab Gunj,28.621017,77.205283
120,875,Talkatora Road,28.6222,77.2031
120,1671,RML Hospital,28.624508,77.197924
120,3481,Talkatora Stadium,28.626217,77.196417
120,3553,Upper Ridge Road,28.63215,77.190017
120,3218,New Rajinder Nagar Post Office,28.636825,77.182967
120,3219,Shankar Road,28.638883,77.179283
120,3220,Rajender Nagar,28.6407,77.176217
120,524,East Patel Nagar,28.64241106,77.17340918
120,525,South Patel Nagar (Metro Station),28.64539457,77.16841961
120,526,West Patel Nagar,28.647504,77.164974
120,527,Shadipur DTC Colony Metro Station,28.6513447,77.15850989
120,528,Shadipur Depot,28.653117,77.1555
120,529,Moti Nagar Industrial Area,28.657317,77.1485
120,530,Karampura Terminal,28.661,77.142383
120,531,New Moti Nagar B Block,28.6635,77.1406
120,532,Punjabi Bagh Terminal,28.669318,77.137519
120,1483,Maharaja Agrasen Hospital,28.674395,77.133887
120,1484,Shivaji Park,28.674684,77.131448
120,1485,SPM College,28.675139,77.128069
120,1486,Madipur Village,28.675542,77.125188
120,1487,Madipur JJ Colony,28.676433,77.118065
120,1488,Ordinance Depot,28.676881,77.114908
120,1489,Avtar Enclave / New Multan Nagar,28.677279,77.111921
120,1490,Multan Nagar,28.678096,77.10543
120,1491,Paschim Vihar Market,28.678694,77.100509
120,1492,Peera Garhi Chowk,28.679188,77.096145
120,4336,Peeragarhi Chowk Flyover,28.683184,77.095199
120,1380,B-Block Mangolpuri,28.6881,77.0951
120,1381,Q Block Mangolpuri,28.687632,77.091057
120,2986,T Block Mangol Puri,28.68963333,77.08201667
120,2987,Mangol Puri S Block,28.692463,77.081984
120,2988,Sultan Puri AB Block Extension,28.69275,77.077417
120,2989,Jalebi Chowk Sultan Puri AB Block,28.6954,77.0735
120,2990,Sultanpuri D Block,28.7005,77.0753
120,2991,Sultanpuri C Block,28.7016,77.0752
120,1164,Sultanpuri Terminal,28.70344854,77.07500931
59,1350,Qamruddin Nagar Terminal,28.682261,77.054315
59,3652,Nangloi JJ Colony Lokesh Cinema,28.68226257,77.05939515
59,1424,Nangloi Metro Station,28.682235,77.064393
59,2153,Nangloi (Najafgarh Road),28.681819,77.067554
59,2154,Nangloi Village,28.678079,77.06453
59,2155,Qamruddin Nagar Crossing,28.67493,77.061522
59,2156,Aman Puri,28.672977,77.059807
59,2157,Narain DharamKanta,28.671061,77.05817
59,22513,ShivRam Park,28.667619,77.055305
59,2159,Nilothi Crossing,28.664418,77.052837
59,2839,Rishal Garden,28.66174046,77.04902011
59,2224,Ranhola Extension,28.659496,77.045543
59,2840,Ranhola Village,28.655863,77.040725
59,2841,Ranhola II,28.65448747,77.03799031
59,2842,PS Ranhola,28.653451,77.035625
59,2843,BrahmPuri Colony,28.652152,77.032675
59,2230,TilangPur Kotla,28.64946,77.02727
59,2232,Chanchal Park,28.646242,77.021841
59,2271,BakkarWala Crossing,28.643343,77.016248
59,5086,Primary School Baprola,28.641963,77.013733
59,2272,Baprola Village,28.640858,77.011808
59,2236,Baprola School,28.638365,77.007943
59,2273,AirForce Station (BaniCamp),28.633299,77.002426
59,2274,Jai Vihar,28.631516,77.000557
59,484,Dichau Kalan Depot,28.628968,76.997542
41,706,Uttam Nagar,28.626011,77.068195
41,170,Uttam Nagar / A1 Janak Puri,28.624813,77.067696
41,171,Tilak Pul,28.621617,77.069969
41,172,Jivan park,28.620041,77.073165
41,173,C-1 Janak Puri,28.618239,77.076935
41,22523,C-1 Janak Puri,28.617434,77.078669
41,175,C-2 Janak Puri,28.616152,77.081383
41,176,C2D Janak Puri,28.614365,77.085484
41,4318,Dabri Crossing Dwarka Road,28.61196498,77.08609353
41,3114,Dabri Village,28.60791,77.08215
41,3115,Vijay Enclave (Palam-Dabri Road),28.60649,77.08123
41,3116,Dashrath Puri,28.603544,77.082855
41,3117,Mahaveer Enclave III,28.600883,77.08215
41,3118,Sulabh International Centre,28.596604,77.081069
41,637,Dwarka Crossing / Maharaja Agrasen Hospital,28.592833,77.079486
41,638,Dwarka Sec 1,28.594283,77.073867
41,2641,Dwarka Sec-6 Telephone Exchange,28.593125,77.071251
41,2642,Dwarka Sec-6/7,28.59012,77.068955
41,2643,Princess Park/ Airforce Noval Office Enclave,28.587302,77.066549
41,2656,Munirka Flats (Dwarka),28.58374,77.06733
41,2657,Royal Residency (Dwarka),28.58162,77.07058
41,3119,National Malariya Research Centre (Dwarka),28.57894,77.07655
41,3120,Dada Dev Mandir,28.57776,77.07715
41,3121,National Malariya Research Centre (Dwarka),28.57631,77.07591
41,3122,Dwarka Sec-8 DTC Depot,28.57603,77.07162
41,3123,Bagdola Village,28.5726,77.06932
41,3124,Dwarka Sec 8,28.5688694,77.0682161
41,599,Dwarka Sec-8 Metro Station,28.56622,77.06691
41,600,Shahbad Mohammad Pur School,28.56294,77.07074
41,601,Shahbad Mohammad Pur Village,28.559648,77.071398
41,4319,Mother Dairy Gali No 4,28.555792,77.075726
41,4320,Tata Motors Gali No 6,28.553429,77.072819
41,4321,Govt Boys Sr Sec School (Shahbad),28.553967,77.070167
41,4322,Bharat Petrolium (Dwarka Link Road),28.545552,77.061073
41,2622,Dwarka Road,28.544483,77.064933
41,2623,Puspanjali G Block,28.5426812,77.07393984
41,22574,Samalka Crossing,28.538036,77.09342
41,1260,Uppal Hotel,28.537233,77.102493
41,1261,Shiv Murti (NH-8),28.535299,77.10847
41,2768,Rang Puri (Airport Road) / Mahipal Pur Crossing,28.5437629,77.1162263
41,2770,Centaur Hotel / New Custom House,28.54894108,77.10505507
41,2771,Cargo / Express Terminal Gate,28.5545567,77.1034151
41,4373,Air Traffic Control Office,28.5564982,77.0937616
41,2772,IGI Airport Terminal 2 (Air India Office),28.5570769,77.0911999
46,3322,Okhla Extension (Abul Fazl Encalve),28.5469,77.3066
46,2611,Shaheen Bagh Thokar No. 8 (AF Enclave),28.549117,77.303983
46,2612,Shaheen Bagh Thokar No. 7,28.550612,77.301945
46,2613,Shaheen Bagh Thokar No. 6,28.55137,77.300588
46,2614,Shaheen Bagh Thokar No. 5,28.552475,77.299857
46,1572,Unani Hospital / Okhla Ext Thokar 3,28.558951,77.296058
46,1573,Nai Basti,28.561467,77.294667
46,1637,Okhla Village,28.563423,77.291309
46,1638,Batla House,28.562317,77.2861
46,1576,Ansari Health Care,28.560917,77.281183
46,1577,Jamiya Millia College,28.5609,77.2798
46,1578,Holy Family Hospital,28.56095,77.275467
46,1579,Bharat Nagar Crossing,28.5619,77.2723
46,1580,Bharat Nagar,28.5666,77.269583
46,2615,Taimur Nagar,28.5708,77.2667
46,2195,Maharani Bagh / Ashram,28.575087,77.262569
46,336,Nehru Nagar,28.568283,77.253917
46,664,Sri Niwaspuri / PG DAV College Lajpat Nagar,28.56675,77.253117
46,337,Lajpat Nagar Ring Road,28.565391,77.248511
46,338,Gupta Market,28.564833,77.241433
46,339,Gupta Market,28.564823,77.239969
46,1708,Andrews Ganj,28.566027,77.229627
46,1709,South Extension,28.568367,77.22315
46,1710,South Extn Kotla Petrol Pump,28.568682,77.218314
46,1711,AIIMS,28.568914,77.213693
46,844,AIIMS,28.566983,77.20795
46,845,Yusuf Sarai,28.5627,77.2077
46,846,Green Park,28.5572,77.2068
46,847,Hauz Khas,28.5529,77.2051
46,848,Padhmini Enclave,28.5498,77.2038
46,849,IIT Gate,28.5462,77.2025
46,3741,IIT Gate,28.546098,77.195698
46,3742,Jia Sarai,28.5483,77.189083
46,3743,IIT Hostel,28.549701,77.185427
46,2403,ISTM,28.552258,77.181166
46,2404,Munirka Family Planning,28.553757,77.178902
46,2405,Munirka DDA Flats,28.555401,77.176406
46,2407,Vasant Vihar Depot,28.558295,77.172165
46,4124,Vasant Vihar Poorvi Marg,28.5613,77.169
46,2409,Swami Malai Mandir,28.567738,77.165006
46,3041,Shanti Niketan / RK Puram Sec 8,28.573033,77.1634
46,3042,South Moti Bagh,28.57778,77.174089
46,1718,South Moti Bagh (Ring Road),28.581592,77.174168
46,1719,Moti Bagh Gurudawara Nanakpura,28.584933,77.172167
46,1720,Satya Niketan,28.58769,77.170461
46,2371,ARSD College / Dhaula Kuan,28.590589,77.168498
45,1913,Bawana Village,28.800222,77.035528
45,2899,Bawana Dispensary,28.801139,77.037544
45,3813,Bawana Soap Factory,28.802188,77.039621
45,752,Bawana Sec 1 Cluster Depot,28.79500536,77.04113605
47,3506,Jharoda Village (Burari),28.7308058,77.21053418
47,3507,Check Post (Burari),28.724654,77.214825
47,3508,Wazirabad Village (Burari),28.72373,77.216614
47,3509,Hardev Nagar / Jharoda Crossing (Burari),28.728681,77.202792
47,3510,STA Burari,28.729792,77.198736
47,286,Nirankari Sarover,28.72773,77.198067
47,287,CV Raman ITI,28.72095,77.20015
47,288,Nirankari Colony,28.714883,77.2041
47,289,Radio Colony,28.71123333,77.2045
47,290,Dhaka Village,28.706789,77.204733
47,4207,Balmiki Gandhi Ashram,28.705124,77.205126
47,4208,TB Hospital,28.700315,77.205157
47,293,GTB Nagar,28.698294,77.206554
47,195,INS Hostel,28.696197,77.21214
47,196,Vishwa Vidyalaya Metro Station,28.695022,77.215318
47,197,Mall Road,28.69382,77.218624
47,294,Khyber Pass,28.690202,77.221419
47,295,Vidhan Sabha Metro Station,28.687634,77.221672
47,296,Old Secretariat (Postal Account Office),28.683891,77.222282
47,297,IP College,28.679703,77.223955
47,956,Exchange Store / Civil Lines Metro Station,28.676617,77.225033
47,299,Ludlow Castle,28.672405,77.226008
47,108,ISBT Kashmere Gate (Lothian Road),28.665616,77.230079
47,109,Guru Govind Singh University (Kashmere Gate),28.665677,77.230238
47,110,GPO,28.661738,77.235311
47,957,Red Fort,28.65808,77.236946
47,958,Jama Masjid,28.650847,77.238458
47,959,Darya Ganj Golcha Cinema,28.644152,77.240425
47,2447,Delhi Gate,28.637446,77.241206
47,2448,Shaheed Park (Bhagat Singh Terminal),28.635077,77.241157
47,2449,ITO,28.629204,77.241471
47,135,Tilak Bridge,28.6253,77.2387
47,136,Mandi House,28.625633,77.234
47,137,Mandi House,28.625035,77.230571
47,138,Kasturba Gandhi Road Crossing,28.623228,77.226725
47,1447,Max Muller Bhawan,28.6232,77.2251
47,1448,Scindia House,28.6287,77.2219
47,513,Shivaji Stadium Terminal,28.632763,77.215806
170,904,Tilak Nagar Terminal,28.63632354,77.09574386
170,628,Tilak Nagar Crossing (Najafgarh Road),28.635322,77.092959
170,629,Janak Puri Check Post,28.63385875,77.08882985
170,630,B2A Janakpuri,28.632306,77.084585
170,631,Janak Puri District Centre,28.630488,77.080047
170,632,Dholi Piao,28.629119,77.076482
170,633,Vikaspuri Crossing,28.626449,77.06969
170,634,Uttam Nagar Terminal,28.624597,77.06498
170,905,Uttam Nagar,28.623129,77.061189
170,906,Prem Nagar,28.621893,77.056719
170,907,Om Vihar,28.621079,77.052669
170,2462,Kiran Garden,28.620523,77.048462
170,909,Nawada,28.620222,77.04552
170,910,Mohan Garden,28.62004935,77.03916296
170,911,Sewak Park Dwarka More Metro Station,28.619263,77.033731
170,651,Kakrola More,28.61892598,77.02958463
170,652,Kakrola Bridge,28.619809,77.024876
170,653,Nangli Dairy,28.61970089,77.01766538
170,654,Chhathh Ghat Park,28.618803,77.015219
170,655,Arjun Park,28.618083,77.013083
170,656,Nangli Sakrawati Crossing,28.61625756,77.00801176
170,4343,Nangli Sakrawati,28.6146386,77.00393526
170,658,Sai Baba Mandir,28.613536,76.999497
170,659,Power House NajafGarh,28.612929,76.995552
170,660,Tuda Mandi,28.6125091,76.99236002
170,488,NajafGarh Delhi Gate,28.611746,76.985721
170,489,Chawla Stand Najafgarh,28.607056,76.986005
170,232,Chhawla Stand Najafgarh,28.60799,76.985536
170,2031,Najafgarh Dhansa More,28.611458,76.979153
170,915,Dhansa Stand,28.61149114,76.97790955
170,916,Khera More,28.610938,76.97401
170,2844,Prem Nursary,28.61016589,76.97130124
170,918,Nanak Piyau,28.60917792,76.96715712
170,919,Indra Service Station,28.60854181,76.95877826
170,920,Mitraon Crossing,28.60811461,76.95117225
170,921,Mitraon Village,28.60806819,76.94732433
170,1736,Mitraon Village (Kair Village Road),28.608448,76.94512
170,1738,Kair Depot,28.618117,76.930783
170,3109,Kair Village,28.623067,76.9206
25,146,Najafgarh Terminal,28.614614,76.978024
25,148,Jharoda Crossing,28.61448074,76.98106202
25,149,Health Centre,28.61415,76.985217
25,488,NajafGarh Delhi Gate,28.611746,76.985721
25,489,Chawla Stand Najafgarh,28.607056,76.986005
25,490,BDO Office,28.600879,76.988758
25,491,Durga Vihar,28.59664,76.99046
25,492,Deenpur Village,28.594055,76.991774
25,493,Goela Dairy Crossing,28.591726,76.992969
25,1166,Jhatikara Crossing,28.584508,76.995742
25,1167,Rewla Taj Pur More,28.577927,76.996696
25,1168,Chhawla School,28.565889,77.000619
25,1246,Chhawla Village,28.561283,77.002168
25,1247,Sumesh Vihar,28.557759,77.004508
25,1248,BSF Camp Chhawla,28.554147,77.006475
25,1249,BSF Campus Chhawla,28.547741,77.00935
25,1250,Toll Tax Post,28.543378,77.012818
25,1251,Bamnoli Power Station,28.54218,77.017987
25,1252,Bamnoli Crossing,28.53919,77.030335
25,1253,Bijwasan Railway Station,28.535596,77.04381
25,1255,Shri Golok Dham Bijwasan School,28.533823,77.059292
25,1257,Kapashera Village Bijwasan Road,28.527671,77.076297
25,1258,Kapashera More,28.53005,77.086897
25,589,Kapashera Crossing,28.531234,77.088154
25,590,Samalkha Village,28.534492,77.090371
25,1259,Samalkha Crossing,28.537955,77.093708
25,1260,Uppal Hotel,28.537233,77.102493
25,1261,Shiv Murti (NH-8),28.535299,77.10847
25,1262,Rang Puri (NH-8 Circle),28.543865,77.117712
25,2101,Mahipal Pur (NH-8),28.5480236,77.1251508
25,1263,Mahipal Pur (NH-8),28.548041,77.125184
25,1264,Shankar Vihar NH-8,28.566684,77.133985
25,1265,APS Colony/ Jharera Gaon,28.579967,77.144817
25,1266,Air Force HQ / Subroto Park,28.584133,77.146033
25,1267,Maharana Pratap Chowk,28.588067,77.1509
25,1268,RR Hospital,28.590067,77.155817
25,191,Dhaula Kuan,28.592987,77.162865
25,1549,Officer Enclave S.P Marg,28.597241,77.171473
25,1550,Bapu Dham,28.599196,77.175168
25,1551,Railway Colony (Sardar Patel Marg),28.600686,77.177964
25,1552,Bhartiya Sadhu Samaj,28.603864,77.184052
25,1553,Palika Kutumb,28.60751,77.188687
25,1554,11 Murti,28.611132,77.190671
25,1555,Talkatora Stadium,28.621202,77.193727
25,1670,Dr. RML Hospital,28.6226,77.1966
25,1284,Talkatora Road,28.623281,77.201586
25,1285,Gurudwara Rakab Gunj,28.621164,77.20521
25,1286,Kendriya Terminal (Pt. Pant Marg),28.621545,77.206233
236,587,Kapashera Border,28.522481,77.082442
236,588,Kapashera Village,28.524517,77.0837
236,589,Kapashera Crossing,28.531234,77.088154
236,590,Samalkha Village,28.534492,77.090371
236,1259,Samalkha Crossing,28.537955,77.093708
236,1260,Uppal Hotel,28.537233,77.102493
236,1261,Shiv Murti (NH-8),28.535299,77.10847
236,1262,Rang Puri (NH-8 Circle),28.543865,77.117712
236,1263,Mahipal Pur (NH-8),28.548041,77.125184
236,1264,Shankar Vihar NH-8,28.566684,77.133985
236,1217,Kendriya Vidhyalaya APS Colony,28.57474789,77.14098647
236,1218,APS Colony / Arjun Path,28.575319,77.147055
236,1219,Subroto Park (Arjun Path),28.574355,77.151709
236,1220,Shani Mandir / Vasant Village,28.575052,77.160073
236,1221,Swami Malai Mandir,28.568464,77.164829
236,1222,R K Puram Sec-5,28.563043,77.168215
236,1223,R K Puram Sec-5,28.560598,77.170161
236,1224,Vasant Vihar Depot,28.558899,77.171968
236,1063,Munirka Family Planning,28.556991,77.174527
236,1064,Munirka DDA Flats,28.555501,77.17666
236,1065,ISTM,28.552791,77.18088
236,1395,Ber Sarai,28.550617,77.181617
236,1396,Ber Sarai,28.549483,77.180617
236,1397,School Of Physical Science,28.546433,77.179433
236,1398,FAI,28.543633,77.1801
236,1399,Sanskrit Vidyapeeth,28.541867,77.18305
236,1400,Katwaria Sarai,28.540483,77.185617
236,4364,Qutab Hotel,28.5391,77.19
236,1402,NCERT,28.537767,77.193833
234,2828,Mehrauli Terminal,28.52131611,77.18304673
234,1008,Qutub Minar,28.526517,77.18605
234,2829,Lado Sarai Crossing,28.527152,77.189916
234,2492,Ahinsa Sthal,28.521603,77.189731
234,2493,Qutub Minar Metro Sation,28.511882,77.184457
234,2494,Andheria Bagh More,28.509256,77.179025
234,2495,Andheria Bagh More / Chhatarpur Metro Station,28.508255,77.174456
234,2496,Vasant Kunj sec A pkt B/C,28.510335,77.169761
234,2497,Vasant Kunj Sec-A ILBS,28.511635,77.1666
234,2498,Kishan Garh,28.514366,77.164154
234,2499,Vasant Kunj Sec-D/3-4,28.516848,77.16131
234,2500,Vasant Kunj Sec-B165,28.522156,77.157576
234,2501,Masood Pur Village,28.525302,77.1547
234,2502,Masood Pur Dairy,28.5286,77.148667
234,2503,Kathuria Public School (Sai Darbar Mandir),28.530901,77.146305
234,2504,ISIC Hospital,28.533934,77.142545
234,2505,Vasant Kunj Sec-C8,28.536742,77.139956
234,2506,Rang Puri Pahari,28.538,77.136307
234,2508,Mahipal Pur Village,28.545763,77.12683
234,1691,Mahipal Pur Crossing NH-8,28.545775,77.123056
234,1692,Rang Puri (NH-8),28.541953,77.118268
234,1693,Shiv Murti,28.535769,77.112611
234,1694,Rajokari Crossing NH-8,28.523139,77.099001
234,1695,Shiv Murti / Dwarka More,28.534898,77.108437
234,1696,Samalkha Crossing,28.537322,77.092137
234,1697,Samalkha Village,28.534542,77.090534
234,2257,Kapashera More (Najafgarh Road),28.530644,77.086237
234,2258,Kapashera Village Bijwasan Road,28.52759,77.076229
234,2259,Shri Golok Dham Bijwasan School,28.533565,77.059594
234,2414,Palam Vihar Crossing,28.532531,77.052948
234,2260,Bijwasan Railway Station,28.53551,77.043612
234,2022,Bamnoli Crossing,28.539219,77.02981
234,2023,Bamnoli Power Station,28.5421,77.017939
234,2024,Toll Tax Post,28.543484,77.012062
234,2026,BSF Camp Chhawla,28.554271,77.006304
234,2027,Sumesh Vihar,28.557851,77.004374
234,2028,Chhawla Village,28.561234,77.002151
234,2029,Chhawla School,28.566798,77.000183
234,2030,Rewla Taj Pur More,28.578209,76.996491
234,1967,Jhatikara Crossing,28.58579,76.995161
234,228,Goela Dairy Crossing,28.591721,76.992877
234,229,Deenpur Village,28.593389,76.991941
234,230,Durga Vihar,28.596621,76.990298
234,231,BDO Office,28.600768,76.988661
234,232,Chhawla Stand Najafgarh,28.60799,76.985536
234,233,Police Station NajafGarh,28.61031861,76.98133766
234,22519,Nazafgarh Dhansa More,28.612021,76.978565
234,379,Jharoda Crossing Jharoda Road,28.6137657,76.97936262
234,380,NajafGarh Terminal,28.61483116,76.97724911
29,966,Rani Khera Depot II,28.69965138,77.03363385
29,967,Rani Khera Depot Crossing,28.69779369,77.02789415
29,2630,Mundka Railway Station,28.69084,77.02787
29,2631,Friends Enclave Mundka,28.68662,77.02614
29,2632,Mundka School (Rani Khera Road),28.68304,77.02794
29,1346,Mundka Village (Metro Station),28.682503,77.029813
29,1347,Mundka Village Crossing,28.682468,77.034963
29,1348,Swarn Park,28.682422,77.040981
29,1349,Rajdhani Park,28.682306,77.048765
29,1350,Qamruddin Nagar Terminal,28.682261,77.054315
220,2828,Mehrauli Terminal,28.52131611,77.18304673
220,1008,Qutub Minar,28.526517,77.18605
220,2829,Lado Sarai Crossing,28.527152,77.189916
220,2492,Ahinsa Sthal,28.521603,77.189731
220,4472,Delhi Jal Board (MG Road),28.51757,77.18922
220,2493,Qutub Minar Metro Sation,28.511882,77.184457
220,2494,Andheria Bagh More,28.509256,77.179025
220,2495,Andheria Bagh More / Chhatarpur Metro Station,28.508255,77.174456
220,2496,Vasant Kunj sec A pkt B/C,28.510335,77.169761
220,2497,Vasant Kunj Sec-A ILBS,28.511635,77.1666
220,2498,Kishan Garh,28.514366,77.164154
220,2499,Vasant Kunj Sec-D/3-4,28.516848,77.16131
220,2500,Vasant Kunj Sec-B165,28.522156,77.157576
220,2501,Masood Pur Village,28.525302,77.1547
220,2502,Masood Pur Dairy,28.5286,77.148667
220,2503,Kathuria Public School (Sai Darbar Mandir),28.530901,77.146305
220,2504,ISIC Hospital,28.533934,77.142545
220,2505,Vasant Kunj Sec-C8,28.536742,77.139956
220,2506,Rang Puri Pahari,28.538,77.136307
220,4473,Sec E Pkt- 2 Vasant Kunj,28.540831,77.130344
220,2507,Mahipal Pur,28.541732,77.129407
220,2508,Mahipal Pur Village,28.545763,77.12683
220,1263,Mahipal Pur (NH-8),28.548041,77.125184
220,1264,Shankar Vihar NH-8,28.566684,77.133985
220,3744,Palam More,28.567675,77.130403
220,3745,Palam Airport  / IGI Airport T111,28.569409,77.123374
220,3746,IOL,28.57529,77.116745
220,3582,Indian Oil Station,28.577368,77.108868
220,3583,Prehlad Pur,28.579554,77.101708
220,3584,Palam Colony Flyover,28.581359,77.095829
220,3585,Dwarka Flyover Palam Village,28.583825,77.091504
220,511,Health Centre,28.592015,77.081258
220,512,Mangla Puri Terminal,28.590099,77.086907
149,4116,Q Block Mangol Puri Terminal,28.687978,77.091856
149,4249,B Block Mangol Puri,28.689169,77.095424
149,1493,Peera Garhi Metro Station,28.679663,77.091766
149,1494,Udyog Nagar,28.679947,77.089403
149,1495,Inder Enclave,28.680544,77.084075
149,1496,Jwala Puri / Nangloi Depot,28.681143,77.078896
149,1497,Surajmal Stadium,28.681821,77.07291
149,1498,Sultanpuri Crossing,28.681881,77.069255
149,2153,Nangloi (Najafgarh Road),28.681819,77.067554
149,2154,Nangloi Village,28.678079,77.06453
149,2155,Qamruddin Nagar Crossing,28.67493,77.061522
149,2156,Aman Puri,28.672977,77.059807
149,2157,Narain DharamKanta,28.671061,77.05817
149,22513,ShivRam Park,28.667619,77.055305
149,2159,Nilothi Crossing,28.664418,77.052837
149,2839,Rishal Garden,28.66174046,77.04902011
149,2224,Ranhola Extension,28.659496,77.045543
149,2840,Ranhola Village,28.655863,77.040725
149,2841,Ranhola II,28.65448747,77.03799031
149,2842,PS Ranhola,28.653451,77.035625
149,2843,BrahmPuri Colony,28.652152,77.032675
149,2034,Jai Vihar Block 2,28.635453,77.00464
149,2232,Chanchal Park,28.646242,77.021841
149,2271,BakkarWala Crossing,28.643343,77.016248
149,2272,Baprola Village,28.640858,77.011808
149,2236,Baprola School,28.638365,77.007943
149,2273,AirForce Station (BaniCamp),28.633299,77.002426
149,2274,Jai Vihar,28.631516,77.000557
149,484,Dichau Kalan Depot,28.628968,76.997542
149,485,Nirmal Vihar,28.625293,76.992481
149,486,Udaseen Ashram,28.621564,76.988064
149,487,Dichau Chowk,28.616516,76.98382
149,149,Health Centre,28.61415,76.985217
149,488,NajafGarh Delhi Gate,28.611746,76.985721
149,233,Police Station NajafGarh,28.61031861,76.98133766
149,915,Dhansa Stand,28.61149114,76.97790955
149,916,Khera More,28.610938,76.97401
149,2161,Krishna Nagar / Gopal Nagar,28.606425,76.972858
149,2162,Khera Village,28.5987726,76.96698094
149,3569,Khera Village 2,28.596347,76.965226
149,2163,KharKhari Nahar / Khera Dabur,28.586969,76.959227
149,2164,Surhera Crossing,28.58215173,76.95808206
149,2165,Pandwala Crossing,28.573848,76.952387
149,2166,KharKhari Rondh,28.561696,76.941952
149,2167,Hasanpur Village,28.556475,76.936796
149,2168,Devta Wala Mandir,28.548826,76.930857
149,2169,Ghuman Hera More / Shikarpur Crossing,28.536825,76.922412
149,2170,Ghuman Hera Village Main Road,28.5326827,76.9196563
149,4445,Ghuman Hera DTC Depot Crossing,28.534407,76.915029
149,4446,Ghuman Hera Depot 1,28.53800829,76.91301361
215,3925,Yamuna Vihar Cluster Depot,28.6986,77.271699
215,807,B-Block Yamuna Vihar,28.702752,77.271309
215,808,Bhajanpura,28.703351,77.263706
72,4377,Ramdev Chowk Narela Terminal,28.85962719,77.09418355
72,2857,Narela A-6 / CPJ College,28.86145,77.0956
72,5,State Bank Of Allahbad,28.854724,77.097933
72,6,Sec A-9 Narela,28.851769,77.097906
72,7,Narela Pocket 13 / A-9,28.851771,77.097849
72,8,Narela Pocket 13 / A-6,28.848993,77.098485
72,9,Raja Harish Chandra Hospital,28.840804,77.10202
72,10,Kasturi Ram School,28.837226,77.098578
72,11,Munim Ji Ka Bagh,28.83657,77.09201
72,12,New Anaj Mandi,28.838193,77.091456
72,13,Kurani More,28.840582,77.090589
72,14,Prem Nagar Narela,28.837755,77.081097
72,15,Maharaja Agrassen School,28.83657,77.079258
72,16,Bharat Mata School,28.833186,77.077052
72,17,Kaushal Devi Netraheen Ashram,28.825219,77.069668
72,756,Sannoth Crossing / Ghoga Crossing,28.819594,77.063606
72,19,Delhi Jal Board Bawana,28.815434,77.058213
72,20,Jain Bekhunth Mandir,28.811811,77.053975
72,21,Bawana JJ Colony CRPF Camp,28.806738,77.048163
72,1145,DSIDC Bawana Sec 2,28.803302,77.042627
72,1147,Bawana Dispensary,28.80095,77.03738
72,1148,Bawana Village Chowk,28.799973,77.03552
72,1149,Primary School,28.797678,77.034438
72,1150,Panchayat Ghar,28.7977933,77.031678
72,1151,Ishwar Colony,28.794782,77.030053
72,1153,Bajit Pur Crossing,28.7849829,77.024146
72,1154,Shri Krishna Gaushala,28.779365,77.021882
72,1155,Prem Piyau,28.76597191,77.01659462
72,1156,Chandpur Khurd,28.760231,77.015964
72,1157,Chandpur Kalan Crossing,28.751341,77.014504
72,1158,SDM Court Kanjhawala,28.740427,77.00954
72,2069,Kanjhawala School,28.738531,77.008207
72,22537,Kanjhawala Village,28.73406915,77.00481836
72,2756,Kanjhawala Depot (Narela Road),28.726426,77.003401
72,2757,Desu Sub Station,28.723063,77.004629
72,2752,Haryana Shakti School Kanjhawala,28.71341145,77.00327966
72,2758,Sir Chhotu Ram Polytechnic,28.706974,77.001217
72,1340,Ghevra Village,28.696216,76.99782
72,1341,FCI Ghevra,28.692527,76.994074
72,1342,Ghevra Crossing / Ghevra Metro Station,28.686356,76.994557
72,1343,Hiran Kudna Crossing,28.68493,77.00089
72,1344,Mile Stone Factory,28.683909,77.012607
72,1345,Shiv Shanker Dharam Kata,28.683407,77.018819
72,1422,Mundka School,28.682984,77.023909
72,3167,Mundka School (Rani Khera Road),28.683241,77.02768
72,3168,Friends Enclave Mundka,28.686538,77.025783
72,3169,Mundka Railway Station,28.691426,77.027617
72,1241,Rani Khera Depot Crossing,28.698024,77.027903
72,1242,Rani Khera Depot 1,28.701092,77.033813
105,1381,Q Block Mangolpuri,28.687632,77.091057
105,4882,Durlabh Nath Vatika Mangol Puri,28.68775,77.08728
105,4883,T Block Mangol Puri,28.6879247,77.0829454
105,2986,T Block Mangol Puri,28.68963333,77.08201667
105,4235,S Block Mangol Puri,28.692667,77.082583
105,4236,Chhath Park Mangol Puri,28.692583,77.086783
105,4237,C Block Mangol Puri,28.692483,77.09145
105,4238,PS Mangol Puri,28.696733,77.092067
105,4239,E Block Mangol Puri,28.695733,77.0955
105,4249,B Block Mangol Puri,28.689169,77.095424
105,1425,Peera Garhi Chowk,28.679358,77.096988
105,1426,Paschim Vihar (Super Market),28.678888,77.100623
105,1427,Multan Nagar,28.678287,77.105707
105,1428,New Multan Nagar,28.677509,77.111541
105,1429,Ordinance Depot,28.677091,77.114998
105,1487,Madipur JJ Colony,28.676433,77.118065
105,1431,Madipur Village,28.675962,77.123824
105,1432,SPM College,28.675382,77.128003
105,1433,Shivaji Park,28.674917,77.13152
105,1434,Maharaja Agrasen Hospital,28.674485,77.134949
105,3724,Punjabi Bagh East,28.6711,77.1393
105,1856,Punjabi Bagh Terminal,28.667724,77.137508
105,1857,New Moti Nagar B Block,28.66365,77.140683
105,1769,Karampura Terminal,28.66041739,77.14376984
105,1770,Moti Nagar Industrial Area,28.65888333,77.14668333
105,1771,Moti Nagar Industrial Area,28.6575,77.1489
105,1772,Shadipur Depot,28.6536,77.1553
105,729,Shadipur Metro Station,28.6515,77.1587
105,730,West Patel Nagar,28.64795,77.164783
105,731,South Patel Nagar (Metro Station),28.6454,77.1689
105,732,East Patel Nagar,28.642967,77.17315
105,1278,Rajender Nagar,28.641,77.1759
105,1279,Shankar Road,28.6391,77.179017
105,1280,New Rajender Nagar,28.6366,77.183683
105,1281,Upper Ridge Road,28.6321026,77.1902553
105,1282,Talkatora Stadium,28.6263,77.1965
105,1283,RML Hospital,28.624591,77.198013
105,1284,Talkatora Road,28.623281,77.201586
105,1285,Gurudwara Rakab Gunj,28.621164,77.20521
105,1286,Kendriya Terminal (Pt. Pant Marg),28.621545,77.206233
105,1287,NDPO,28.62548,77.2065
105,1289,Hanuman Mandir / Shivaji Stadium,28.630278,77.213782
105,22528,Shivaji Stadium Terminal,28.63239,77.21551
164,22573,Kendriya Terminal (Church Road),28.6175,77.203933
164,1685,Gurudwara Rakab Ganj,28.6185,77.206
164,1286,Kendriya Terminal (Pt. Pant Marg),28.621545,77.206233
164,1287,NDPO,28.62548,77.2065
164,1556,Gurudwara Bangla Sahib,28.625396,77.209524
164,1672,Patel Chowk,28.6244,77.2112
164,833,Aakashwani Bhawan,28.620515,77.212714
164,2451,Krishi Bhawan / Rail Bhawan Metro Station,28.614867,77.212383
164,835,Udyog Bhawan,28.6126,77.2122
164,3497,Udyog Bhawan,28.6106,77.2131
164,3498,Nirman Bhawan,28.610381,77.217327
164,3499,Vigyan Bhawan,28.610217,77.22165
164,3500,Akbar Road,28.610633,77.22595
164,1781,Baroda House,28.615895,77.230278
164,1782,National Stadium,28.6136,77.2347
164,1783,High Court,28.609467,77.2379
164,348,National Stadium,28.611683,77.239967
164,3505,Pragati Maidan (Bhairon Marg),28.612697,77.245017
164,2649,Pragati Power Station,28.615698,77.249945
164,4578,Indraprastha Cluster Depot,28.619883,77.248333
225,111,Old Delhi Railway Station (T),28.66005068,77.22789212
225,1480,Peeli Kothi,28.662501,77.217933
225,1481,Tees Hazari Animal Hospital Mori Gate,28.664436,77.215266
225,45,Ice Factory (Roshanara Road),28.667538,77.207439
225,672,Roshnara Road,28.669035,77.204663
225,673,Roshnara Bagh,28.6717,77.2007
225,674,Clock Tower,28.6774,77.201633
225,675,Shakti Nagar,28.6804,77.1993
225,1186,Roop Nagar (GT Road),28.682636,77.197448
225,1187,Gur Mandi,28.68496667,77.19593333
225,1188,Rana Pratap Bagh,28.688886,77.192984
225,1189,Gurudwara Nanak Pyau,28.6908,77.1918
225,1190,State Bank Colony,28.6956,77.1878
225,1191,Telephone Exchange,28.6975,77.1862
225,1192,Gujranwala Town,28.6996,77.1845
225,1193,Bara Bagh,28.7017,77.1828
225,239,Azadpur Terminal,28.707525,77.177797
225,240,New Sabzi Mandi,28.7139,77.1725
225,241,Adarsh Nagar / Bharola Village,28.715917,77.170867
225,242,Sarai Peepal Thala,28.720417,77.166983
225,243,Mahindra Park,28.72153333,77.166
225,244,Jahangir Puri GT Road,28.7251,77.163217
225,245,Jahangir Puri Metro Station,28.7273,77.161583
225,246,GTK Depot,28.731183,77.158617
225,248,Mukraba Chowk / Sanjay Gandhi Transport Nagar,28.738473,77.154112
225,249,Libas Pur GT Road,28.752467,77.149383
225,250,Swaroop Nagar GT Road,28.75805,77.14765
225,251,Gurudwara Siraspur GT Road,28.76486,77.145315
225,1194,Nangli Puna,28.7729,77.14305
225,1195,Jain Mandir,28.777717,77.142033
225,1196,Budhpur GT Road,28.78185,77.141117
225,1197,Bdo Office,28.79315,77.139833
225,1198,Alipur Village GT Road,28.796783,77.139433
225,765,Pwd Office,28.8022,77.1386
225,766,Bakauli Village,28.811931,77.135652
225,22538,NIT GT Road,28.81634633,77.13438077
225,767,Khampur Village,28.824805,77.13183
225,768,Tikri Khurd Crossing,28.835211,77.12846
225,769,Tikri Khurd,28.835878,77.1238
211,770,Anand Vihar ISBT Terminal,28.646328,77.314904
211,67,Anand Vihar ISBT Main Road,28.647061,77.317903
211,1604,Maharaj Pur Check Post,28.643371,77.316656
211,1605,Gazipur Depot,28.641921,77.316118
211,3021,Gazipur Village,28.6321,77.3161
211,3022,SFS Quarter Gazipur,28.630817,77.316617
211,3023,NHW-24 Xing (Gazipur Xing),28.626833,77.316633
211,3024,East Vinod Nagar Depot,28.621931,77.302238
211,1844,East Vinod Nagar (NH24),28.620507,77.29787
211,3025,Sanjay Lake Trilokpuri,28.6198,77.295283
211,2187,Samaspur Jagir Village,28.6158,77.286
211,2188,Akhardham Temple,28.61235,77.2825
211,2189,Khel Gaon,28.606154,77.274967
211,22565,C P W D Office,28.6036,77.2691
211,2191,Nizamuddin Road Bridge,28.5959338,77.2566294
211,2647,Nizamuddin Road Bridge,28.603911,77.253706
211,2648,Railway Road Bridge,28.60975,77.2518
211,4578,Indraprastha Cluster Depot,28.619883,77.248333
110,1684,Kendriya Terminal (Church Road),28.617513,77.203683
110,1685,Gurudwara Rakab Ganj,28.6185,77.206
110,875,Talkatora Road,28.6222,77.2031
110,876,Dr. RML Hospital,28.6223961,77.1965567
110,877,Talkatora Stadium Garden,28.6212541,77.1942054
110,878,Sardar Patel Road Xing (11 Murti),28.611,77.1908
110,879,Palika Kutumb,28.6078,77.1891
110,880,Bhartiya Sadhu Samaj,28.603917,77.1845
110,881,Railway Colony (Sardar Patel Marg),28.600783,77.1785
110,882,Bapu Dham,28.5994,77.1758
110,883,Officer Enclave S.P Marg,28.597,77.1713
110,884,Dhaula Kuan,28.592721,77.163492
110,1687,RR Hospital / Maharana Pratap Chowk,28.59015,77.15675
110,1688,Air Force HQ / Subroto Park,28.583678,77.146096
110,1689,APS Colony/ Jharera Gaon,28.579433,77.145
110,1690,Shankar Vihar/ National Highway 8,28.566367,77.134283
110,1691,Mahipal Pur Crossing NH-8,28.545775,77.123056
110,1692,Rang Puri (NH-8),28.541953,77.118268
110,1693,Shiv Murti,28.535769,77.112611
110,1694,Rajokari Crossing NH-8,28.523139,77.099001
110,1695,Shiv Murti / Dwarka More,28.534898,77.108437
110,1696,Samalkha Crossing,28.537322,77.092137
110,1697,Samalkha Village,28.534542,77.090534
110,1698,Kapashera Crossing,28.528867,77.08675
110,1699,Kapashera Village,28.5235,77.08325
110,22529,Kapashera Border,28.522753,77.082855
168,661,Nizamuddin Railway Station,28.586388,77.253259
168,662,Rajdoot Hotel,28.5825,77.2527
168,663,Ashram (Hari Nagar),28.57449,77.256841
168,336,Nehru Nagar,28.568283,77.253917
168,664,Sri Niwaspuri / PG DAV College Lajpat Nagar,28.56675,77.253117
168,460,Lajpat Nagar Crossing,28.564183,77.250367
168,461,Garhi Village,28.5624,77.251417
168,462,B-Block East of Kailash,28.562167,77.255617
168,463,C-Block East of Kailash,28.56215,77.2582
168,464,SNPD,28.5612422,77.2601598
168,465,Laghu Udyog Sansthan (ModiMill),28.5565,77.2648
168,466,NSIC,28.553683,77.265133
168,467,Kalkaji Mandir,28.55205,77.2645
168,1701,Nehru Place Terminal,28.54735,77.253991
168,1802,Nehru Place,28.547317,77.254033
168,1803,Pumposh Enclave,28.543597,77.244165
168,1804,OS Communication / Masjid Moth,28.54045,77.235833
168,3097,Chirag Delhi,28.53898092,77.23230398
168,3098,Sheikh Sarai Phase II,28.53371245,77.23220962
168,865,Pushpa Bhawan,28.527,77.231201
168,866,Madangir DDA Flats,28.52469079,77.23037663
168,5087,Madangir DDA Flats,28.52036219,77.22833663
168,20341,Khanpur Ambedkar Nagar,28.51621073,77.22695847
168,2484,Ambedkar Nagar Terminal / DIPSAR,28.516101,77.223607
168,2485,Asian Market,28.5166,77.2214
168,2486,Saket Crossing,28.5176,77.216583
168,2487,Maidan Garhi Crossing (SDM Court),28.519067,77.2088
168,2488,Saket Metro Sation,28.520338,77.202869
168,2489,SaidulAJab,28.521142,77.199972
168,2490,Dhaula Peer,28.521941,77.197872
168,2491,Dhaula Peer / Lado Sarai,28.522572,77.193168
168,3704,Lado Sarai Crossing (Aurobindo Marg),28.52429616,77.18997027
168,3705,Qutub Minar,28.52647,77.1865
168,3706,Mehrauli Terminal,28.52182294,77.18341792
169,76,Tikri Border Metro Station,28.68806917,76.96543973
169,77,Tikari Village,28.6875,76.9708
169,78,Tikri Hospital,28.6869,76.9783
169,79,Tikri Piyau / Azad Hind Gram,28.686817,76.979933
169,80,Indian Oil Corporation,28.686267,76.986533
169,1342,Ghevra Crossing / Ghevra Metro Station,28.686356,76.994557
169,1343,Hiran Kudna Crossing,28.68493,77.00089
169,1344,Mile Stone Factory,28.683909,77.012607
169,1345,Shiv Shanker Dharam Kata,28.683407,77.018819
169,1422,Mundka School,28.682984,77.023909
169,1346,Mundka Village (Metro Station),28.682503,77.029813
169,1347,Mundka Village Crossing,28.682468,77.034963
169,1348,Swarn Park,28.682422,77.040981
169,1349,Rajdhani Park,28.682306,77.048765
169,1350,Qamruddin Nagar Terminal,28.682261,77.054315
169,4455,Nangloi JJ Colony Lokesh Cinema,28.682315,77.059529
169,1424,Nangloi Metro Station,28.682235,77.064393
169,1373,Sultan Puri Crossing/Nangloi,28.682268,77.068791
169,1374,Maha Raja Surajmal Stadium,28.6821,77.072925
169,1375,Nangloi Bus Stand,28.681534,77.078788
169,1376,Inder Enclave,28.681041,77.083855
169,1377,Udyog Nagar,28.680368,77.08915
169,1378,Peera Garhi Metro Station,28.679904,77.092102
169,1425,Peera Garhi Chowk,28.679358,77.096988
169,1426,Paschim Vihar (Super Market),28.678888,77.100623
169,1427,Multan Nagar,28.678287,77.105707
169,1428,New Multan Nagar,28.677509,77.111541
169,1429,Ordinance Depot,28.677091,77.114998
169,1430,Madipur JJ Colony,28.676365,77.120477
169,1431,Madipur Village,28.675962,77.123824
169,1432,SPM College,28.675382,77.128003
169,1433,Shivaji Park,28.674917,77.13152
169,1434,Maharaja Agrasen Hospital,28.674485,77.134949
169,2277,Punjabi Bagh Terminal (Rohtak Road),28.673355,77.143876
169,2278,Punjabi Bagh West Power House,28.67296,77.147244
169,2279,Ram Pura,28.672048,77.153511
169,2280,Ram Pura (Ashok Park),28.671405,77.157274
169,2281,Zakhira Flyover,28.668627,77.165368
169,2282,Daya Basti Flyover,28.666508,77.170188
169,2283,Anand Parbat Industrial Area,28.664714,77.175426
169,2429,Sarai Rohilla (Rohtak Road),28.662689,77.185138
169,2284,Sarai Rohilla Govt Qtrs (Rohtak Road),28.661228,77.185153
169,2285,Liberty Cinema,28.660021,77.188823
169,2430,Dev Nagar,28.656146,77.187825
169,2431,Dev Nagar / Khalsa College,28.655538,77.187903
169,2432,Prahlad Market,28.653928,77.190757
169,2433,Thana DB Gupta Road,28.652514,77.19331
169,2434,DB Gupta Market,28.65182,77.194689
169,2435,Faiz Road,28.649568,77.198267
169,1773,Karol Bagh Terminal,28.648374,77.200656
169,1774,Jhandewalan,28.647103,77.2039
169,739,Paharganj Police Station,28.646179,77.208232
169,740,Dispensary Paharganj,28.6452,77.2133
169,1276,Kamla Market / Ajmeri Gate,28.6448,77.223733
169,1277,PS Kamla Market,28.6429,77.2267
169,742,JLN Marg,28.642068,77.228325
169,743,Zakir Husain College,28.641166,77.230002
169,744,Turkman Gate / GB Pant Hospital,28.641834,77.233136
169,745,Delite Cinema,28.6412,77.235016
169,746,Delhi Gate,28.64073,77.238584
169,4456,Delhi Gate / Ambedkar Stadium Terminal,28.639867,77.2437
169,4457,Gandhi Darshan,28.636683,77.247283
169,1678,Indira Gandhi Stadium,28.6328,77.2472
169,1679,ITO Ring Road,28.629567,77.247833
169,2436,Delhi Sectt,28.6311,77.25207
169,1680,Delhi Sachivalaya (Rajghat Power House),28.63801932,77.2526922
39,2372,Dhaula Kuan ARSD College,28.590141,77.169167
39,1051,Satya Niketan,28.588732,77.170023
39,1052,Gurudwara Moti Bagh,28.5851033,77.1724418
39,1053,South Moti Bagh (Ring Road),28.581943,77.174262
39,1054,South Moti Bagh,28.577432,77.173731
39,1055,R. K. Puram Sec-12,28.5757,77.1724
39,1056,Sangam Cinema,28.573643,77.173644
39,1057,RK Puram Sec-10,28.570222,77.17311
39,1058,Mohan Singh Market,28.566602,77.176331
39,1059,R K Puram Sec-1 2,28.564697,77.178246
39,1061,R K Puram Nab,28.561227,77.176315
39,1063,Munirka Family Planning,28.556991,77.174527
39,1064,Munirka DDA Flats,28.555501,77.17666
39,1065,ISTM,28.552791,77.18088
39,1395,Ber Sarai,28.550617,77.181617
39,1397,School Of Physical Science,28.546433,77.179433
39,1398,FAI,28.543633,77.1801
39,1399,Sanskrit Vidyapeeth,28.541867,77.18305
39,1400,Katwaria Sarai,28.540483,77.185617
39,4364,Qutab Hotel,28.5391,77.19
39,1402,NCERT,28.537767,77.193833
39,1013,Adhchini Village,28.537823,77.19807
39,1014,Mothers International School,28.541141,77.1995
39,1015,IIT Gate,28.543571,77.20071
39,850,Panchsheel Club / Sarvpriya Vihar,28.543924,77.205014
39,1226,Sadhna Enclave,28.543008,77.216415
39,1227,North Point (Nursing Home),28.542843,77.218556
39,1228,Swami Nagar,28.542403,77.224741
39,3619,Chirag Dilli,28.542,77.2308
39,1229,Masjid Moth,28.540839,77.235989
39,1231,OS Communications,28.542779,77.241391
39,1232,Pumposh Enclave,28.543647,77.243651
39,1233,Nehru Place Terminal,28.548383,77.255294
39,468,Kalkaji Mandir (MaaAnandmayeeMarg),28.5479,77.263
39,469,Govind Puri Metro Station,28.545217,77.2641
39,470,Kalkaji Depot,28.5375,77.2674
39,471,C-Lal Chowk,28.534033,77.268667
39,472,CRPF Camp / Crown Plaza,28.527867,77.272383
39,473,Bank,28.5261,77.2736
39,3811,Indra Kalyan Vihar,28.523283,77.2756
39,474,Okhla Ph-I,28.5203,77.2777
39,665,ESI Hospital Okhla,28.51529,77.281062
39,476,Tehkhand Depot DTC,28.510917,77.281167
39,477,Prem Nagar,28.5044,77.2793
39,478,Lal Kuan,28.5026,77.284517
39,479,Surajkund Crossing,28.5017,77.291
39,480,Prehlad Pur,28.5,77.294633
39,481,Badarpur M B Road,28.4995,77.299267
39,482,Jaitpur Crossing,28.498104,77.302191
39,937,Badarpur Border (T),28.493092,77.303489
150,1243,New Delhi Railway Station Gate 2,28.643002,77.223707
150,1035,PS Kamla Market,28.643042,77.226021
150,22539,Kamla Market / Ajmeri Gate,28.643992,77.224068
150,1641,Dispensary Paharganj,28.6449,77.2135
150,1642,Police Station Paharganj,28.646088,77.208137
150,1643,Jhandewalan,28.646879,77.204151
150,1644,Karol Bagh Terminal,28.648113,77.200963
150,1645,Faiz Road,28.648267,77.199017
150,521,Pusa Road Petrol Pump Sadhu Vaswani Marg,28.644583,77.192833
150,522,Karol Bagh Metro Station,28.643911,77.188747
150,4323,Rajendra Place / Karol Bagh Telephone Exchange,28.642667,77.180083
150,524,East Patel Nagar,28.64241106,77.17340918
150,525,South Patel Nagar (Metro Station),28.64539457,77.16841961
150,526,West Patel Nagar,28.647504,77.164974
150,527,Shadipur DTC Colony Metro Station,28.6513447,77.15850989
150,2993,Shadipur Colony,28.6517,77.1565
150,727,Pandav Nagar,28.650051,77.153678
150,2994,Naraina Depot,28.6487,77.1512
150,2995,Bentex,28.6442,77.1477
150,1462,Loha Mandi,28.6395,77.143933
150,1463,Payal Cinema,28.6309,77.1383
150,1464,Naraina Vihar / Indra Market,28.626762,77.135747
150,1465,Mayapuri Depot Crossing,28.636933,77.1289
150,1466,Government Press,28.634183,77.127517
150,1467,Metal Forging,28.62939569,77.12350216
150,1468,BE Block Hari Nagar / ESI Dispensary,28.62734711,77.12176296
150,1469,PS Mayapuri,28.625217,77.119867
150,1470,Bobby Soap,28.6238,77.1188
150,1471,Gulab House,28.622383,77.117417
150,1472,Zunk Market,28.618117,77.112183
150,1473,Maya Enclave,28.616667,77.110233
150,892,Lajwanti Garden,28.613845,77.106342
150,893,D Block Janak Puri,28.610606,77.10369
150,894,SagarPur Vashisht park,28.609254,77.0996
150,1474,Desu Colony Janak Puri,28.609892,77.095236
150,1475,Janak Cinema,28.611016,77.092008
150,1476,Raghu Nagar (Janak Puri),28.612528,77.088599
150,4318,Dabri Crossing Dwarka Road,28.61196498,77.08609353
150,2635,New Dwarka Road Seetapuri,28.60907058,77.08079614
150,2636,Dwarka Puri,28.607483,77.078267
150,2637,Vijay Enclave (New Dwarka Road),28.6062,77.0755
150,2638,Mahaveer Enclave Part II  and  III,28.60397024,77.07198378
150,2639,SFS Flat Sec-2 Power House,28.600333,77.071483
150,2640,Dwarka Sec-1 Mahalaxmi Apartment,28.5964312,77.0722357
150,2641,Dwarka Sec-6 Telephone Exchange,28.593125,77.071251
150,2642,Dwarka Sec-6/7,28.59012,77.068955
150,2643,Princess Park/ Airforce Noval Office Enclave,28.587302,77.066549
150,2644,President Cabinet Apartments,28.582817,77.062683
150,215,NHAI Building/ Dwarka Sec-10 Metro Station,28.578409,77.058932
150,3838,Dwarka Sec 19-20 Crossing,28.576405,77.057223
150,3839,DDA Booster Pump Station,28.5713529,77.0529072
150,3840,Radha Swami Satsang Sec-23 Dwarka,28.566873,77.04923
150,3841,Pochan Pur Village Dwarka Sec 23,28.565283,77.049833
136,1175,Rewla Khanpur Depot,28.56890762,76.97642902
136,1965,Purani Basti Rewla Khanpur,28.569594,76.977464
136,1966,Rewla Tajpur Crossing,28.572594,76.980927
136,1967,Jhatikara Crossing,28.58579,76.995161
136,228,Goela Dairy Crossing,28.591721,76.992877
136,229,Deenpur Village,28.593389,76.991941
136,230,Durga Vihar,28.596621,76.990298
136,231,BDO Office,28.600768,76.988661
136,232,Chhawla Stand Najafgarh,28.60799,76.985536
136,233,Police Station NajafGarh,28.61031861,76.98133766
136,915,Dhansa Stand,28.61149114,76.97790955
136,916,Khera More,28.610938,76.97401
136,2844,Prem Nursary,28.61016589,76.97130124
136,918,Nanak Piyau,28.60917792,76.96715712
136,919,Indra Service Station,28.60854181,76.95877826
136,920,Mitraon Crossing,28.60811461,76.95117225
136,921,Mitraon Village,28.60806819,76.94732433
136,1738,Kair Depot,28.618117,76.930783
136,3109,Kair Village,28.623067,76.9206
187,1350,Qamruddin Nagar Terminal,28.682261,77.054315
187,1423,Nangloi JJ Colony Lokesh Cinema,28.682367,77.059401
187,1424,Nangloi Metro Station,28.682235,77.064393
187,1373,Sultan Puri Crossing/Nangloi,28.682268,77.068791
187,1374,Maha Raja Surajmal Stadium,28.6821,77.072925
187,1375,Nangloi Bus Stand,28.681534,77.078788
187,1376,Inder Enclave,28.681041,77.083855
187,1377,Udyog Nagar,28.680368,77.08915
187,1378,Peera Garhi Metro Station,28.679904,77.092102
187,1425,Peera Garhi Chowk,28.679358,77.096988
187,1426,Paschim Vihar (Super Market),28.678888,77.100623
187,1427,Multan Nagar,28.678287,77.105707
187,1428,New Multan Nagar,28.677509,77.111541
187,1429,Ordinance Depot,28.677091,77.114998
187,1430,Madipur JJ Colony,28.676365,77.120477
187,1431,Madipur Village,28.675962,77.123824
187,1432,SPM College,28.675382,77.128003
187,1433,Shivaji Park,28.674917,77.13152
187,1434,Maharaja Agrasen Hospital,28.674485,77.134949
187,2277,Punjabi Bagh Terminal (Rohtak Road),28.673355,77.143876
187,2278,Punjabi Bagh West Power House,28.67296,77.147244
187,2279,Ram Pura,28.672048,77.153511
187,2280,Ram Pura (Ashok Park),28.671405,77.157274
187,2281,Zakhira Flyover,28.668627,77.165368
187,2282,Daya Basti Flyover,28.666508,77.170188
187,2283,Anand Parbat Industrial Area,28.664714,77.175426
187,2429,Sarai Rohilla (Rohtak Road),28.662689,77.185138
187,2284,Sarai Rohilla Govt Qtrs (Rohtak Road),28.661228,77.185153
187,2285,Liberty Cinema,28.660021,77.188823
187,2431,Dev Nagar / Khalsa College,28.655538,77.187903
187,2432,Prahlad Market,28.653928,77.190757
187,2433,Thana DB Gupta Road,28.652514,77.19331
187,2434,DB Gupta Market,28.65182,77.194689
187,2435,Faiz Road,28.649568,77.198267
187,1773,Karol Bagh Terminal,28.648374,77.200656
187,1774,Jhandewalan,28.647103,77.2039
187,2709,Rani Jhansi Road Jhande Walan,28.6456,77.205
187,1109,Panchkuian Road Banwari Lal Hospital,28.64165,77.204717
187,2877,Panchkuian Road,28.640283,77.206933
187,2878,Kalawati Hospital,28.6381,77.2108
187,2879,Sucheta Kriplani Hospital,28.6361752,77.2141483
187,830,Super Bazar,28.632651,77.223088
187,1777,Kailash Bhawan,28.62921,77.221797
187,1778,Max Mueller Bhawan,28.6245,77.2246
187,1779,Bhartiya Vidya Bhawan,28.6213,77.2264
187,1780,Baroda House,28.617358,77.228653
187,1781,Baroda House,28.615895,77.230278
187,1782,National Stadium,28.6136,77.2347
187,1783,High Court,28.609467,77.2379
187,4300,Zoo,28.608445,77.240173
187,1785,Sunder Nagar,28.605254,77.240356
187,1786,Delhi Public School,28.598679,77.240793
187,1787,Police Station Nizamuddin (Dargah),28.591455,77.245072
187,1788,Nizamuddin Extension,28.589642,77.246307
187,1789,Bhogal (Jungpura),28.584883,77.249733
187,1790,Bhogal,28.583537,77.25079
187,2468,Rojdoot Hotel,28.5827,77.2525
187,2469,Nizamuddin Railway Station,28.5863252,77.2530455
217,668,ISBT Kashmere Gate Terminal,28.66696,77.227456
217,48,ISBT Nityanand Marg,28.668328,77.225017
217,4309,ISBT Ring Road,28.671291,77.231132
217,3398,Metcalf House,28.680934,77.227601
217,3573,IP College (Ring Road),28.682065,77.22433
217,821,Old Secretariat (Postal Account Office),28.683783,77.222172
217,822,Vidhan Sabha Metro Station,28.687802,77.221442
217,823,Khyber Pass,28.690613,77.221168
217,824,Mall Road,28.693646,77.218432
217,825,Vishwa Vidyalaya Metro Station,28.695213,77.214096
217,826,INS Hostel,28.696149,77.211705
217,2579,GTB Nagar,28.698363,77.20568
217,2915,New Police Lines,28.699194,77.203386
217,2916,Alpana Cinema (Model Town Mtr Stn),28.70271,77.193708
217,2917,Model Town II,28.704042,77.190535
217,2918,Model Town III,28.705905,77.185185
217,2919,Azadpur Metro Station,28.707269,77.180917
217,3101,Azadpur Terminal,28.707663,77.178197
217,2214,Shalimar Bagh Crossing,28.703355,77.169098
217,382,Ashok Vihar Crossing,28.701819,77.165532
217,383,Richi Rich,28.70097,77.161821
217,384,Prem Bari Pul,28.700065,77.158465
217,385,Punjab Kesari (Subhash Palace Depot),28.695994,77.155671
217,2010,Wazirpur Depot,28.691925,77.153796
217,2011,Telephone Exchange,28.686246,77.151088
217,2012,Britannia,28.685074,77.149267
217,2013,Shakurpur Shiv Mandir,28.681015,77.143195
217,2216,Punjabi Bagh Terminal,28.6758,77.1411
217,1483,Maharaja Agrasen Hospital,28.674395,77.133887
217,1484,Shivaji Park,28.674684,77.131448
217,1485,SPM College,28.675139,77.128069
217,1486,Madipur Village,28.675542,77.125188
217,1487,Madipur JJ Colony,28.676433,77.118065
217,1488,Ordinance Depot,28.676881,77.114908
217,1489,Avtar Enclave / New Multan Nagar,28.677279,77.111921
217,1490,Multan Nagar,28.678096,77.10543
217,1491,Paschim Vihar Market,28.678694,77.100509
217,1492,Peera Garhi Chowk,28.679188,77.096145
217,1494,Udyog Nagar,28.679947,77.089403
217,1495,Inder Enclave,28.680544,77.084075
217,1496,Jwala Puri / Nangloi Depot,28.681143,77.078896
217,1497,Surajmal Stadium,28.681821,77.07291
217,1498,Sultanpuri Crossing,28.681881,77.069255
217,2153,Nangloi (Najafgarh Road),28.681819,77.067554
217,2154,Nangloi Village,28.678079,77.06453
217,2155,Qamruddin Nagar Crossing,28.67493,77.061522
217,2156,Aman Puri,28.672977,77.059807
217,2157,Narain DharamKanta,28.671061,77.05817
217,22513,ShivRam Park,28.667619,77.055305
217,2159,Nilothi Crossing,28.664418,77.052837
217,2839,Rishal Garden,28.66174046,77.04902011
217,2224,Ranhola Extension,28.659496,77.045543
217,2840,Ranhola Village,28.655863,77.040725
217,2841,Ranhola II,28.65448747,77.03799031
217,2842,PS Ranhola,28.653451,77.035625
217,2843,BrahmPuri Colony,28.652152,77.032675
217,2230,TilangPur Kotla,28.64946,77.02727
217,2232,Chanchal Park,28.646242,77.021841
217,2271,BakkarWala Crossing,28.643343,77.016248
217,2272,Baprola Village,28.640858,77.011808
217,2236,Baprola School,28.638365,77.007943
217,2273,AirForce Station (BaniCamp),28.633299,77.002426
217,2274,Jai Vihar,28.631516,77.000557
217,484,Dichau Kalan Depot,28.628968,76.997542
217,485,Nirmal Vihar,28.625293,76.992481
217,486,Udaseen Ashram,28.621564,76.988064
217,487,Dichau Chowk,28.616516,76.98382
217,149,Health Centre,28.61415,76.985217
217,488,NajafGarh Delhi Gate,28.611746,76.985721
217,233,Police Station NajafGarh,28.61031861,76.98133766
217,915,Dhansa Stand,28.61149114,76.97790955
217,916,Khera More,28.610938,76.97401
217,2844,Prem Nursary,28.61016589,76.97130124
217,918,Nanak Piyau,28.60917792,76.96715712
217,919,Indra Service Station,28.60854181,76.95877826
217,920,Mitraon Crossing,28.60811461,76.95117225
217,921,Mitraon Village,28.60806819,76.94732433
217,71,Mitraon School,28.607199,76.939964
217,72,Surehra Crossing,28.60425122,76.93243765
217,2996,Rawta Crossing (Dhansa Road),28.59996,76.914581
217,74,Jaffarpur Kalan RTRM Hospital,28.5948401,76.91534756
217,75,Samaspur Khalsa,28.578394,76.909982
10,3646,West Enclave / Sansad Vihar (T),28.691467,77.10095
10,2152,Mangol Puri B Block (ORR),28.689596,77.096796
10,1425,Peera Garhi Chowk,28.679358,77.096988
10,1426,Paschim Vihar (Super Market),28.678888,77.100623
10,1427,Multan Nagar,28.678287,77.105707
10,1428,New Multan Nagar,28.677509,77.111541
10,1429,Ordinance Depot,28.677091,77.114998
10,1430,Madipur JJ Colony,28.676365,77.120477
10,1431,Madipur Village,28.675962,77.123824
10,1432,SPM College,28.675382,77.128003
10,1433,Shivaji Park,28.674917,77.13152
10,1434,Maharaja Agrasen Hospital,28.674485,77.134949
10,2277,Punjabi Bagh Terminal (Rohtak Road),28.673355,77.143876
10,2278,Punjabi Bagh West Power House,28.67296,77.147244
10,2279,Ram Pura,28.672048,77.153511
10,2706,Ashok Park,28.671382,77.157292
10,2281,Zakhira Flyover,28.668627,77.165368
10,2428,Daya Basti Flyover,28.6665,77.170033
10,2283,Anand Parbat Industrial Area,28.664714,77.175426
10,2284,Sarai Rohilla Govt Qtrs (Rohtak Road),28.661228,77.185153
10,2285,Liberty Cinema,28.660021,77.188823
10,2430,Dev Nagar,28.656146,77.187825
10,2431,Dev Nagar / Khalsa College,28.655538,77.187903
10,2432,Prahlad Market,28.653928,77.190757
10,2433,Thana DB Gupta Road,28.652514,77.19331
10,2434,DB Gupta Market,28.65182,77.194689
10,2435,Faiz Road,28.649568,77.198267
10,1773,Karol Bagh Terminal,28.648374,77.200656
10,1774,Jhandewalan,28.647103,77.2039
10,739,Paharganj Police Station,28.646179,77.208232
10,3760,Chitra Gupta Road,28.643854,77.20924
10,3761,Chitra Gupta Road,28.640495,77.208271
10,2878,Kalawati Hospital,28.6381,77.2108
10,2879,Sucheta Kriplani Hospital,28.6361752,77.2141483
10,830,Super Bazar,28.632651,77.223088
10,1290,Statesman House,28.6306,77.2238
10,1291,Barakhamba Metro Station,28.6297,77.2252
10,1292,Modern School,28.6278,77.2285
10,1293,Mandi House,28.6258,77.2343
10,1294,Tilak Bridge,28.6255,77.2397
10,4296,ITO,28.628217,77.24505
10,2436,Delhi Sectt,28.6311,77.25207
10,1680,Delhi Sachivalaya (Rajghat Power House),28.63801932,77.2526922
11,1684,Kendriya Terminal (Church Road),28.617513,77.203683
11,2790,Gurudwara Rakab Ganj,28.619801,77.206282
11,875,Talkatora Road,28.6222,77.2031
11,1671,RML Hospital,28.624508,77.197924
11,3481,Talkatora Stadium,28.626217,77.196417
11,3553,Upper Ridge Road,28.63215,77.190017
11,3218,New Rajinder Nagar Post Office,28.636825,77.182967
11,3219,Shankar Road,28.638883,77.179283
11,3220,Rajender Nagar,28.6407,77.176217
11,524,East Patel Nagar,28.64241106,77.17340918
11,525,South Patel Nagar (Metro Station),28.64539457,77.16841961
11,526,West Patel Nagar,28.647504,77.164974
11,527,Shadipur DTC Colony Metro Station,28.6513447,77.15850989
11,528,Shadipur Depot,28.653117,77.1555
11,529,Moti Nagar Industrial Area,28.657317,77.1485
11,1531,Moti Nagar,28.658615,77.144108
11,1532,Moti Nagar Market,28.6568,77.140833
11,1533,Kirti Nagar,28.655,77.1376
11,1534,Basai Darapur / Ramesh Nagar,28.6528,77.1324
11,1535,Bali Nagar,28.6519,77.1289
11,1536,Raja Garden,28.650783,77.1262
11,1537,Rajouri Garden,28.647847,77.120113
11,1538,Tagore Garden,28.645683,77.116211
11,1539,Tagore Garden Metro Station / Tatarpur,28.644,77.113549
11,1540,Subhash Nagar Crossing / Mukherji Park,28.64192,77.108859
11,1541,Meenakshi Garden,28.639983,77.10435
11,1542,Sant Pura Tilak Nagar,28.638567,77.100583
11,1824,Tilak Nagar Terminal,28.63666856,77.09706038
11,629,Janak Puri Check Post,28.63385875,77.08882985
11,630,B2A Janakpuri,28.632306,77.084585
11,631,Janak Puri District Centre,28.630488,77.080047
11,632,Dholi Piao,28.629119,77.076482
11,633,Vikaspuri Crossing,28.626449,77.06969
11,634,Uttam Nagar Terminal,28.624597,77.06498
247,2068,Rani Khera Depot I,28.701095,77.03384333
247,967,Rani Khera Depot Crossing,28.69779369,77.02789415
247,2630,Mundka Railway Station,28.69084,77.02787
247,2631,Friends Enclave Mundka,28.68662,77.02614
247,2632,Mundka School (Rani Khera Road),28.68304,77.02794
247,1903,Mile Stone Factory,28.683767,77.0114
247,1904,Hiran Kudna Crossing,28.684678,77.000986
247,3032,Ghevra Crossing Rohtak Road,28.685266,76.994167
247,81,Ghevra Crossing (Kanjhawala Road),28.686112,76.994467
247,82,FCI Ghevra,28.69285,76.993943
247,83,Ghevra Village,28.696524,76.997956
247,84,Sir Chhotu Ram Polytechnic,28.707239,77.001132
247,85,Haryana Shakti School Kanjhawla,28.71416643,77.00318814
247,86,Desu Sub Station,28.723483,77.004474
247,22581,Kanjhawala Depot (Narela Road),28.726575,77.003172
247,88,Kanjhawala Village,28.733592,77.004502
247,2069,Kanjhawala School,28.738531,77.008207
247,90,Kanjhawla School,28.738824,77.008263
247,91,Chandpur Kalan Crossing,28.751435,77.014409
247,2070,Chandpur Khurd,28.760193,77.015788
247,96,Prem Piyau,28.76665064,77.01640913
247,97,Shri Krishna Gaushala,28.779779,77.021947
247,98,Bajit Pur Crossing,28.78502619,77.02386743
247,99,Krishna Vihar,28.787599,77.025648
247,100,Ishwar Colony,28.794529,77.029967
247,101,Panchayat Ghar,28.797939,77.031709
247,102,Primary School,28.797795,77.034329
247,2924,Bawana Village Narela Road,28.8000411,77.03561148
247,2899,Bawana Dispensary,28.801139,77.037544
247,2900,DSIDC Bawana Sec 2,28.803459,77.042622
247,22520,Bawana JJ Colony CRPF Camp,28.806989,77.047994
247,755,Delhi Jal Board Bawana,28.815521,77.058038
247,2852,Sannoth Crossing / Ghoga Crossing,28.819901,77.063707
247,2853,Kaushal Devi Netraheen Ashram,28.825515,77.069757
247,2854,Bharat Mata School,28.832922,77.076468
247,2855,Maharaja Agrassen School,28.835746,77.079296
247,2856,New Anaj Mandi Xing,28.842683,77.088691
247,270,Old Anaj Mandi,28.845328,77.088967
247,271,Narela Primary School,28.847045,77.088366
247,0,Narela Terminal,28.851958,77.088107
247,1,Police Station Narela,28.853311,77.088548
247,2,Safiyabad Crossing,28.854965,77.089322
247,3,Ramdev Chowk / Pitori Johad,28.857713,77.092846
247,4377,Ramdev Chowk Narela Terminal,28.85962719,77.09418355
209,149,Health Centre,28.61415,76.985217
209,488,NajafGarh Delhi Gate,28.611746,76.985721
209,489,Chawla Stand Najafgarh,28.607056,76.986005
209,490,BDO Office,28.600879,76.988758
209,491,Durga Vihar,28.59664,76.99046
209,492,Deenpur Village,28.594055,76.991774
209,493,Goela Dairy Crossing,28.591726,76.992969
209,569,Jhatikra Crossing Pandwala Road,28.58463829,76.99505282
209,570,Rewla Khanpur Crossing,28.572355,76.980956
209,571,Purani Basti Rewla Khanpur,28.569584,76.977685
209,572,Rewla Khanpur Depot,28.56867407,76.97671441
176,1148,Bawana Village Chowk,28.799973,77.03552
176,1149,Primary School,28.797678,77.034438
176,1150,Panchayat Ghar,28.7977933,77.031678
176,1151,Ishwar Colony,28.794782,77.030053
176,1152,Krishna Vihar,28.787407,77.025648
176,1153,Bajit Pur Crossing,28.7849829,77.024146
176,1154,Shri Krishna Gaushala,28.779365,77.021882
176,1155,Prem Piyau,28.76597191,77.01659462
176,1156,Chandpur Khurd,28.760231,77.015964
176,1157,Chandpur Kalan Crossing,28.751341,77.014504
176,1158,SDM Court Kanjhawala,28.740427,77.00954
176,2069,Kanjhawala School,28.738531,77.008207
176,22537,Kanjhawala Village,28.73406915,77.00481836
176,2756,Kanjhawala Depot (Narela Road),28.726426,77.003401
176,2757,Desu Sub Station,28.723063,77.004629
176,2752,Haryana Shakti School Kanjhawala,28.71341145,77.00327966
176,84,Sir Chhotu Ram Polytechnic,28.707239,77.001132
176,1340,Ghevra Village,28.696216,76.99782
176,1341,FCI Ghevra,28.692527,76.994074
176,1342,Ghevra Crossing / Ghevra Metro Station,28.686356,76.994557
176,1343,Hiran Kudna Crossing,28.68493,77.00089
176,1344,Mile Stone Factory,28.683909,77.012607
176,1902,Mundka Industrial Area / Shiv Shankar Dharamkanta,28.683217,77.017619
176,1422,Mundka School,28.682984,77.023909
176,1346,Mundka Village (Metro Station),28.682503,77.029813
176,1347,Mundka Village Crossing,28.682468,77.034963
176,1348,Swarn Park,28.682422,77.040981
176,1349,Rajdhani Park,28.682306,77.048765
176,1350,Qamruddin Nagar Terminal,28.682261,77.054315
176,1423,Nangloi JJ Colony Lokesh Cinema,28.682367,77.059401
176,1424,Nangloi Metro Station,28.682235,77.064393
50,1680,Delhi Sachivalaya (Rajghat Power House),28.63801932,77.2526922
50,440,Rajghat Gandhi Darshan,28.6389,77.2502
50,1854,Delhi Gate / Ambedkar Stadium Terminal,28.639661,77.243789
50,2447,Delhi Gate,28.637446,77.241206
50,2448,Shaheed Park (Bhagat Singh Terminal),28.635077,77.241157
50,2449,ITO,28.629204,77.241471
50,135,Tilak Bridge,28.6253,77.2387
50,136,Mandi House,28.625633,77.234
50,137,Mandi House,28.625035,77.230571
50,138,Kasturba Gandhi Road Crossing,28.623228,77.226725
50,139,Firoz Shah Road,28.621,77.2215
50,4378,Patel Chowk,28.622246,77.214617
50,2254,Patel Chowk (Ashoka Road),28.624548,77.210633
50,2255,Gurudwara Bangla Sahib,28.625333,77.209333
50,2256,NDPO,28.6235,77.2065
50,873,Kendriya Terminal (Pt. Pant Marg),28.6214,77.2064
50,874,Kendriya Terminal / Gurudwara Rakab Gunj,28.621017,77.205283
50,875,Talkatora Road,28.6222,77.2031
50,876,Dr. RML Hospital,28.6223961,77.1965567
50,877,Talkatora Stadium Garden,28.6212541,77.1942054
50,878,Sardar Patel Road Xing (11 Murti),28.611,77.1908
50,879,Palika Kutumb,28.6078,77.1891
50,880,Bhartiya Sadhu Samaj,28.603917,77.1845
50,881,Railway Colony (Sardar Patel Marg),28.600783,77.1785
50,882,Bapu Dham,28.5994,77.1758
50,883,Officer Enclave S.P Marg,28.597,77.1713
50,884,Dhaula Kuan,28.592721,77.163492
50,1687,RR Hospital / Maharana Pratap Chowk,28.59015,77.15675
50,1688,Air Force HQ / Subroto Park,28.583678,77.146096
50,1689,APS Colony/ Jharera Gaon,28.579433,77.145
50,2413,APS Colony,28.574431,77.142057
50,4379,Shankar Vihar / National Highway 8,28.566514,77.134394
50,4881,Mahipal Pur Extension,28.5536552,77.1320232
50,4002,Mahipal Pur Village,28.545668,77.123085
50,1692,Rang Puri (NH-8),28.541953,77.118268
50,1693,Shiv Murti,28.535769,77.112611
50,4003,Rajokari Crossing NH-8,28.5227542,77.0986901
50,1695,Shiv Murti / Dwarka More,28.534898,77.108437
50,1696,Samalkha Crossing,28.537322,77.092137
50,1697,Samalkha Village,28.534542,77.090534
50,2257,Kapashera More (Najafgarh Road),28.530644,77.086237
50,2258,Kapashera Village Bijwasan Road,28.52759,77.076229
50,2259,Shri Golok Dham Bijwasan School,28.533565,77.059594
50,2414,Palam Vihar Crossing,28.532531,77.052948
50,2260,Bijwasan Railway Station,28.53551,77.043612
50,2022,Bamnoli Crossing,28.539219,77.02981
50,2023,Bamnoli Power Station,28.5421,77.017939
50,2024,Toll Tax Post,28.543484,77.012062
50,2025,BSF Campus Chhawla,28.547917,77.009152
50,2026,BSF Camp Chhawla,28.554271,77.006304
50,2027,Sumesh Vihar,28.557851,77.004374
50,1169,Chhawla Village Kangan Heri Road,28.561281,77.001954
50,1170,Rishal Vihar,28.553617,76.992947
50,1171,Kangan Heri I,28.54824016,76.98868998
50,3707,Kangan Heri - II,28.545303,76.987857
50,3708,Badu sarai Village,28.529628,76.98658
90,1184,New Seema Puri Depot Cluster,28.685597,77.331404
90,2799,Saiyyad Nagar Dilshad Garden,28.682567,77.33155
90,2800,Old Seema Puri,28.680817,77.327867
90,2801,JandK Pocket Dilshad Garden,28.679458,77.324621
90,22544,Shahdara Border Seemapuri Road,28.67771331,77.32352626
90,774,Shahdara Border GT Road,28.676241,77.321331
90,775,Jhilmil Xing,28.676186,77.317518
90,776,Dilshad Garden GT Road,28.675883,77.3118
90,777,Telephone Exchange,28.675817,77.309217
90,778,Mansarovar Park Metro Station,28.675479,77.300119
90,3626,Shahdara Railway Bridge,28.6749,77.2898
90,112,Shahdara Terminal,28.67409,77.286865
90,113,Shahdara (Shyam Lal College),28.67304344,77.28274875
90,114,Kanti Nagar Extension,28.6704,77.2809
90,115,Jharkhandi,28.66785,77.28225
90,116,East Azad Nagar,28.666167,77.283917
90,117,Swaran Cinema,28.663502,77.285917
90,118,Krishna Nagar A Block,28.661,77.2878
90,119,Hans Apartment,28.6582,77.29
90,120,Arjun Nagar,28.6564,77.2915
90,121,Radheypuri,28.654,77.2925
90,122,Jagatpuri  A Block,28.651637,77.293123
90,123,Jagatpuri F-Block,28.648036,77.295529
90,125,Karkardooma Xing,28.642867,77.29725
90,126,New Rajdhani Enclave,28.64215,77.29625
90,127,Preet Vihar,28.639333,77.292417
90,128,Nirman Vihar,28.636783,77.287683
90,129,Shakarpur Crossing,28.635367,77.28495
90,130,Shakarpur,28.633394,77.281942
90,131,Laxmi Nagar,28.6313,77.2789
90,132,Rainy Well,28.628033,77.260933
90,133,Delhi Secretariat,28.62795,77.25235
90,134,ITO,28.627967,77.244433
90,2814,Tilak Bridge,28.623715,77.239316
90,2815,Supreme Court,28.619682,77.236336
90,2816,Patiala House,28.61643,77.233868
90,1782,National Stadium,28.6136,77.2347
90,2817,Shajahan Road UPSC,28.608467,77.227917
90,2818,Humayun Road / Khan Market,28.6033331,77.2272001
90,2819,Sujan Singh Park,28.601017,77.22945
90,2820,Sujan Singh Park,28.599233,77.228567
90,2821,Bharti Nagar,28.596683,77.228717
90,2822,Dayal Singh College,28.592183,77.228983
90,3060,Pragati Vihar,28.5873,77.2295
90,452,J L Nehru Stadium,28.5841,77.2301
90,453,Sewa Nagar Flyover,28.57875,77.229533
90,454,Defence Colony (Homyopathic College),28.571983,77.227669
90,455,PT College Kotla,28.569817,77.22655
90,1709,South Extension,28.568367,77.22315
90,1710,South Extn Kotla Petrol Pump,28.568682,77.218314
90,1711,AIIMS,28.568914,77.213693
90,1712,SJ Hospital Ring Road,28.569541,77.203522
90,1713,Nauroji Nagar,28.56929625,77.19503921
90,2824,Africa Avenue,28.569183,77.191283
90,2825,Bhikaji Cama Place,28.568081,77.189577
90,2199,Mohammadpur Village,28.565068,77.189089
90,2200,R K Puram Sec-2,28.561654,77.188401
90,2826,RK Khanna Tennis Stadium,28.558393,77.187302
90,2201,R K Puram Sec-3,28.556707,77.184517
90,2202,R K Puram Sec-3,28.558072,77.182416
90,2203,R K Puram Sec 1/4,28.56176363,77.18071613
90,2827,RK Puram Sec 1,28.562952,77.178481
90,1061,R K Puram Nab,28.561227,77.176315
90,1062,Munirka Village (T),28.558583,77.173811
90,2407,Vasant Vihar Depot,28.558295,77.172165
90,3061,Vasant Lok,28.56035,77.164417
90,3062,Vasant Vihar F Block Poorvi Marg,28.560417,77.1611
90,3063,Modern School  Vasant Vihar F Block,28.559967,77.157317
90,3064,Indian AirLines/Priya Cinema,28.5587,77.158117
90,3065,CPWD Colony Vasant Vihar,28.554792,77.164694
155,3298,Kalyan Puri Terminal,28.616183,77.318517
155,3299,Samudaya Bhawan Khichripur Village,28.617713,77.316733
155,4447,Khicripur Village,28.620884,77.313182
155,4448,East Vinod Nagar,28.623883,77.309717
155,2963,Ras Vihar Apartment (PS Madhu Vihar),28.6253,77.3057
155,2964,Saraswati Kunj,28.623867,77.301483
155,2965,Press Apartment,28.62285,77.2983
155,1845,Govt Model School / Ambedkar Park,28.621767,77.295083
155,1846,Dharma Apartment,28.6199,77.29005
155,3300,Mother Dairy Crossing,28.618933,77.287867
155,1847,Mother Dairy,28.619767,77.285817
155,1848,Ganesh Nagar,28.62085,77.285167
155,1849,Shakar Pur School Block,28.6271,77.279467
155,1850,Laxmi Nagar / Shakarpur Crossing,28.629233,77.27735
155,132,Rainy Well,28.628033,77.260933
155,133,Delhi Secretariat,28.62795,77.25235
155,134,ITO,28.627967,77.244433
155,135,Tilak Bridge,28.6253,77.2387
155,136,Mandi House,28.625633,77.234
155,137,Mandi House,28.625035,77.230571
155,138,Kasturba Gandhi Road Crossing,28.623228,77.226725
155,139,Firoz Shah Road,28.621,77.2215
155,140,Le Meridian Hotel / Rajendra Prasad Road,28.619225,77.217521
155,141,Krishi Bhawan,28.616983,77.2137
155,142,Red Cross Road,28.618035,77.210453
155,143,Aakashwani Bhawan (Imtiyaz Ali Road),28.62065,77.2098
155,144,Gurudwara Rakab Ganj Road,28.6209,77.2073
155,145,Kendriya Terminal (Church Road),28.617383,77.20395
210,3101,Azadpur Terminal,28.707663,77.178197
210,2214,Shalimar Bagh Crossing,28.703355,77.169098
210,382,Ashok Vihar Crossing,28.701819,77.165532
210,383,Richi Rich,28.70097,77.161821
210,384,Prem Bari Pul,28.700065,77.158465
210,385,Punjab Kesari (Subhash Palace Depot),28.695994,77.155671
210,3680,Wazirpur DTC Depot / Netaji Subhash Palace,28.693815,77.151074
210,387,Pitampura ND Block,28.69553,77.146025
210,388,Kohat Enclave Metro Station,28.697168,77.142174
210,389,Vaishali  Enclave / Kapil Vihar,28.699303,77.137619
210,2605,Madhuban Chowk Pitampura Metro Stn,28.702623,77.132828
210,392,Madhuban Chowk Outer Ring Road,28.702886,77.130242
210,393,Saraswati  Vihar C Block,28.700082,77.125333
210,394,Deepali Chowk,28.69796,77.11962
210,397,Rohini Depot  3,28.695388,77.109414
210,991,Mangol Pur School (Outer Ring Road),28.694414,77.106315
210,689,Mangol Pur School (Kanjhawla Road),28.694632,77.105225
210,399,Mangolpur Kalan Village,28.695549,77.101135
210,690,Avantika Xing,28.698239,77.097085
210,401,Mangol Pur Khurd,28.700005,77.094325
210,402,Mangolpuri Y Block,28.702634,77.089647
210,4292,Budh Vihar,28.704356,77.086935
210,404,Krishna Vihar,28.709736,77.081042
210,405,Brahm Shakti Hospital,28.7125001,77.0805
210,406,Pooth Kalan,28.714257,77.076933
210,692,Rohini Sec 20/21 More,28.7155,77.0743
210,407,Rohini Sec-21,28.7187,77.0696
210,1987,Rohini Sec 20/21/22 Crossing,28.720102,77.068773
210,4168,Police Station Begumpur,28.723041,77.071322
210,22557,Begumpur Extension,28.728585,77.075589
210,22558,Pansali Dham Rohini,28.740753,77.076572
210,22559,Rohini Sec 36,28.744632,77.067821
210,22560,Rohini Sec 37 eBus Depot,28.7477453,77.0534881
210,413,Karala School,28.730681,77.039664
210,414,Karala Village,28.7315,77.037
210,415,Karala Crossing,28.731601,77.031627
210,416,Desu Office,28.7325,77.0284
210,417,Shiv Vihar Bheem Chowk,28.7333,77.025
210,418,Radha Swami Satsang,28.73384,77.0208
210,419,Shivam Plywood,28.7352,77.01258333
210,420,Kanjhawla Chowk,28.737911,77.00692
210,421,Nirmal Hospital,28.738428,77.004399
210,2904,Ladpur School,28.739083,76.998467
210,423,Rajendra Lakra Public School,28.740338,76.994313
210,424,Sant Vivekanand School,28.74225,76.9865
210,425,Vriddha Ashram,28.744467,76.980917
210,426,Jonti Crossing,28.74615,76.978217
210,427,Jonti Village,28.75314524,76.97206783
210,428,Tatesar Village,28.755872,76.968475
210,2933,Tatesar Gurukul,28.758855,76.967482
210,429,Balaji Enclave,28.767498,76.96456
210,430,Punjab Khor Village,28.773006,76.962094
210,431,Punjab Khor Village,28.7779,76.9614
210,432,Divya Dham Ashram,28.788119,76.962441
210,433,Jatt Khor Crossing,28.79069,76.962473
210,434,Qutub Garh Enclave,28.7977,76.960533
210,435,Qutub Garh Village (T),28.801274,76.962031
210,2695,Katewara School,28.805994,76.966346
210,437,Katewara Colony,28.805956,76.969867
210,22543,Katewara Village,28.80522,76.976829
178,2192,ISBT Sarai Kale Khan,28.589103,77.259022
178,2193,Bala Sahib Gurudwara,28.5821,77.26555
178,2194,Maharani Bagh,28.576295,77.264457
178,2195,Maharani Bagh / Ashram,28.575087,77.262569
178,336,Nehru Nagar,28.568283,77.253917
178,664,Sri Niwaspuri / PG DAV College Lajpat Nagar,28.56675,77.253117
178,337,Lajpat Nagar Ring Road,28.565391,77.248511
178,338,Gupta Market,28.564833,77.241433
178,339,Gupta Market,28.564823,77.239969
178,1708,Andrews Ganj,28.566027,77.229627
178,1709,South Extension,28.568367,77.22315
178,1710,South Extn Kotla Petrol Pump,28.568682,77.218314
178,1711,AIIMS,28.568914,77.213693
178,1712,SJ Hospital Ring Road,28.569541,77.203522
178,1713,Nauroji Nagar,28.56929625,77.19503921
178,1714,Hyatt Hotel (GAIL),28.569743,77.186793
178,1715,RK Puram Sec-12,28.570381,77.182761
178,1716,RK Puram Sec-12,28.5723,77.1798
178,1717,RK Puram Sec-12,28.5752,77.1778
178,1718,South Moti Bagh (Ring Road),28.581592,77.174168
178,1719,Moti Bagh Gurudawara Nanakpura,28.584933,77.172167
178,1720,Satya Niketan,28.58769,77.170461
178,1721,ARSD College (Dhaula Kuan),28.590383,77.168467
178,3306,Dhaula Kuan (Ring Road),28.599036,77.162675
178,4344,R R Lines,28.603917,77.155339
178,1724,Garrison Engg.,28.605202,77.146802
178,1725,Brar Square,28.6072794,77.1410982
178,888,Thimiyan Park,28.60265,77.133483
178,1726,Kirbi Place,28.60535,77.126367
178,890,Supply Depot,28.606633,77.123233
178,891,Janak Setu,28.6104,77.1138
178,1727,Nangal Raya Lajwanti Garden,28.611868,77.109342
178,1728,D Block Janak Puri (Pankha Road),28.607682,77.104129
178,894,SagarPur Vashisht park,28.609254,77.0996
178,895,Desu Colony Janakpuri,28.610901,77.098786
178,896,C5A Janakpuri,28.6155,77.097
178,897,Central Market C3 Janakpuri,28.61525,77.092367
178,620,C4E Janakpuri,28.616659,77.087976
178,621,C2B Janak Puri,28.621222,77.088818
178,898,C2 Janakpuri,28.6216,77.0841
178,899,A3 Janak Puri,28.619583,77.079267
178,900,Janak Puri,28.617945,77.077135
178,901,Jivan Park,28.619637,77.073604
178,902,Tilak Pul,28.621389,77.070002
178,903,Uttam Nagar /#REF!  Janak Puri,28.624,77.068009
178,634,Uttam Nagar Terminal,28.624597,77.06498
160,770,Anand Vihar ISBT Terminal,28.646328,77.314904
160,67,Anand Vihar ISBT Main Road,28.647061,77.317903
160,1604,Maharaj Pur Check Post,28.643371,77.316656
160,1605,Gazipur Depot,28.641921,77.316118
160,1606,Hasanpur Village,28.636133,77.310567
160,1607,Hasanpur Depot,28.635896,77.308099
160,3376,Ashirwad Apartment,28.634483,77.301867
160,3377,Mithla Apartment Chandar Vihar,28.6329,77.2992
160,3378,Prince Apartment,28.63095,77.3008
160,3379,Neethi Apartment,28.6314,77.302
160,3380,Himalaya Apartment,28.6322,77.3043
160,2960,Balco Apartment,28.62985,77.306917
160,2961,Vijaya Laxmi Apartment,28.6289,77.309017
160,2962,Parivar Apartment,28.626417,77.3091
160,2963,Ras Vihar Apartment (PS Madhu Vihar),28.6253,77.3057
160,2964,Saraswati Kunj,28.623867,77.301483
160,2965,Press Apartment,28.62285,77.2983
160,1845,Govt Model School / Ambedkar Park,28.621767,77.295083
160,1846,Dharma Apartment,28.6199,77.29005
160,3300,Mother Dairy Crossing,28.618933,77.287867
160,1847,Mother Dairy,28.619767,77.285817
160,1848,Ganesh Nagar,28.62085,77.285167
160,1849,Shakar Pur School Block,28.6271,77.279467
160,132,Rainy Well,28.628033,77.260933
160,133,Delhi Secretariat,28.62795,77.25235
160,3066,ITO,28.627983,77.244433
160,135,Tilak Bridge,28.6253,77.2387
160,136,Mandi House,28.625633,77.234
160,2340,Modern School,28.627831,77.227939
160,2341,Barakhamba Metro Station,28.6294,77.2253
160,1449,Shivaji Stadium Terminal,28.633083,77.215446
160,515,Shaheed Bhagat Singh Marg,28.633562,77.209301
160,2722,Gole Market,28.635295,77.205543
160,2723,Rama Krishna Ashram Marg,28.637441,77.207065
160,3774,Panchkuian Road,28.6402,77.2067
160,519,Panchkuian Road Banwai Lal Hospital,28.6417,77.2042
160,520,Meghdoot Bhawan,28.643667,77.201033
160,521,Pusa Road Petrol Pump Sadhu Vaswani Marg,28.644583,77.192833
160,522,Karol Bagh Metro Station,28.643911,77.188747
160,4323,Rajendra Place / Karol Bagh Telephone Exchange,28.642667,77.180083
160,524,East Patel Nagar,28.64241106,77.17340918
160,525,South Patel Nagar (Metro Station),28.64539457,77.16841961
160,526,West Patel Nagar,28.647504,77.164974
160,527,Shadipur DTC Colony Metro Station,28.6513447,77.15850989
160,528,Shadipur Depot,28.653117,77.1555
160,529,Moti Nagar Industrial Area,28.657317,77.1485
160,530,Karampura Terminal,28.661,77.142383
160,531,New Moti Nagar B Block,28.6635,77.1406
160,3887,Punjabi Bagh Terminal,28.66735,77.137317
65,2593,Rani Khera Depot III,28.69799188,77.03412361
65,967,Rani Khera Depot Crossing,28.69779369,77.02789415
65,2630,Mundka Railway Station,28.69084,77.02787
65,2631,Friends Enclave Mundka,28.68662,77.02614
65,2632,Mundka School (Rani Khera Road),28.68304,77.02794
65,1903,Mile Stone Factory,28.683767,77.0114
65,1904,Hiran Kudna Crossing,28.684678,77.000986
65,81,Ghevra Crossing (Kanjhawala Road),28.686112,76.994467
65,82,FCI Ghevra,28.69285,76.993943
65,83,Ghevra Village,28.696524,76.997956
65,84,Sir Chhotu Ram Polytechnic,28.707239,77.001132
65,85,Haryana Shakti School Kanjhawla,28.71416643,77.00318814
65,86,Desu Sub Station,28.723483,77.004474
65,22581,Kanjhawala Depot (Narela Road),28.726575,77.003172
65,88,Kanjhawala Village,28.733592,77.004502
65,3032,Ghevra Crossing Rohtak Road,28.685266,76.994167
65,2069,Kanjhawala School,28.738531,77.008207
65,421,Nirmal Hospital,28.738428,77.004399
65,422,Ladpur Village,28.73949,76.997517
65,423,Rajendra Lakra Public School,28.740338,76.994313
65,424,Sant Vivekanand School,28.74225,76.9865
65,425,Vriddha Ashram,28.744467,76.980917
65,2905,Jonti Crossing,28.745749,76.978089
65,1332,Jonti Village,28.74915024,76.96878719
65,3526,Jonti Border,28.757064,76.945655
12,1824,Tilak Nagar Terminal,28.63666856,77.09706038
12,1543,Tilak Nagar Jail Road,28.634409,77.097456
12,1544,Fateh Nagar,28.6312,77.09885
12,1545,G Block Hari Nagar,28.628,77.100233
12,2072,Hari Nagar Depot,28.625133,77.102067
12,1099,DA Block Hari Nagar,28.6251,77.106867
12,1100,Hari Nagar Shaheed Pawan Sahni Chowk,28.6252,77.1108
12,1101,DDU Hospital,28.628,77.1107
12,1102,Beriwala Bagh,28.63145,77.111967
12,1103,Swarg Ashram,28.631,77.1149
12,1104,LIG Flats,28.6309,77.1196
12,1105,Hari Nagar (Mohan Mandir) Mayapuri,28.630683,77.124267
12,720,Government Press,28.634617,77.127633
12,721,Mayapuri Depot,28.63685,77.12835
12,3280,Maya Puri Crossing (Ring Road),28.638484,77.1295001
12,4053,Rajouri Garden Market,28.645283,77.126883
12,3727,Raja Garden (Ring Road),28.650873,77.124388
12,3282,Rajdhani College Raja Garden,28.656007,77.125884
12,3283,ESI Hospital,28.65915,77.128767
12,3284,Punjabi Bagh Club,28.66319343,77.13011106
12,532,Punjabi Bagh Terminal,28.669318,77.137519
12,1483,Maharaja Agrasen Hospital,28.674395,77.133887
12,1484,Shivaji Park,28.674684,77.131448
12,1485,SPM College,28.675139,77.128069
12,1486,Madipur Village,28.675542,77.125188
12,1487,Madipur JJ Colony,28.676433,77.118065
12,1488,Ordinance Depot,28.676881,77.114908
12,1489,Avtar Enclave / New Multan Nagar,28.677279,77.111921
12,1490,Multan Nagar,28.678096,77.10543
12,1491,Paschim Vihar Market,28.678694,77.100509
12,1492,Peera Garhi Chowk,28.679188,77.096145
12,1493,Peera Garhi Metro Station,28.679663,77.091766
12,1494,Udyog Nagar,28.679947,77.089403
12,1495,Inder Enclave,28.680544,77.084075
12,1496,Jwala Puri / Nangloi Depot,28.681143,77.078896
12,1497,Surajmal Stadium,28.681821,77.07291
12,1498,Sultanpuri Crossing,28.681881,77.069255
12,1499,Nangloi Metro Station,28.681943,77.064075
12,1500,Nangloi JJ Colony Lokesh Cinema,28.682093,77.058859
12,1501,Qamruddin Nagar Terminal,28.682061,77.054037
243,1185,Mori Gate Terminal,28.66608,77.22161
243,669,Tees Hazari Court,28.666662,77.21926
243,670,St Stephen Hospital,28.6671,77.2149
243,45,Ice Factory (Roshanara Road),28.667538,77.207439
243,672,Roshnara Road,28.669035,77.204663
243,673,Roshnara Bagh,28.6717,77.2007
243,674,Clock Tower,28.6774,77.201633
243,675,Shakti Nagar,28.6804,77.1993
243,1186,Roop Nagar (GT Road),28.682636,77.197448
243,1187,Gur Mandi,28.68496667,77.19593333
243,1188,Rana Pratap Bagh,28.688886,77.192984
243,1189,Gurudwara Nanak Pyau,28.6908,77.1918
243,1190,State Bank Colony,28.6956,77.1878
243,1191,Telephone Exchange,28.6975,77.1862
243,1192,Gujranwala Town,28.6996,77.1845
243,1193,Bara Bagh,28.7017,77.1828
243,239,Azadpur Terminal,28.707525,77.177797
243,240,New Sabzi Mandi,28.7139,77.1725
243,241,Adarsh Nagar / Bharola Village,28.715917,77.170867
243,242,Sarai Peepal Thala,28.720417,77.166983
243,243,Mahindra Park,28.72153333,77.166
243,244,Jahangir Puri GT Road,28.7251,77.163217
243,245,Jahangir Puri Metro Station,28.7273,77.161583
243,246,GTK Depot,28.731183,77.158617
243,2143,Haiderpur Metro Station,28.7308471,77.14990378
243,2144,Badli Crossing,28.728354,77.14621
243,1004,Jail Road Rohini Sec 18,28.727265,77.143241
243,1005,Badli Village,28.731937,77.140125
243,1006,Rohini Sec 18 Block,28.735794,77.137389
243,1007,Rohini Sec 18,28.73884,77.135808
243,2739,Rohini Sec 18 Pocket A,28.740704,77.132838
243,3537,Rohini Sec 18 B-7 Road,28.743164,77.131729
243,2740,Rohini DTC Depot 4,28.744866,77.130226
243,2741,Sri Krishan Apartments,28.743846,77.126013
243,2742,Rohini Sec-16 Xing,28.744217,77.120593
243,2743,Delhi Engg College Shahbad,28.745292,77.116388
243,2744,Shahbad Daulatpur Gaon,28.745279,77.112086
243,2745,Shahbad Daulatpur School,28.745669,77.106847
243,2746,St Xavier School,28.745565,77.102837
243,2747,Shahbad Dairy Block A,28.745885,77.098541
243,2748,Shahbad Dairy,28.746647,77.0958
243,2749,Rohini Sec 27 and 30 Crossing,28.747792,77.089138
243,2357,Prehladpur Village,28.751012,77.081081
243,2358,Prehladpur School,28.75257,77.075612
243,2359,Jain Colony,28.75375,77.0728
243,2360,Barwala School,28.759052,77.062701
243,2361,Barwala Village,28.760283,77.060436
243,2750,Poothkhurd Firni Road,28.76436,77.054918
243,2362,Sultan Pur Crossing / Poothkhurd,28.767917,77.049267
243,2363,Poothkhurd Village,28.772317,77.0489
243,2364,Maharishi Valmiki Hospital,28.775183,77.047367
243,2751,DSIDC Office Bawana,28.780528,77.043774
243,2365,Dhakewala Bawana,28.786105,77.041019
243,2366,Aditi College Bawana,28.794621,77.036256
243,2367,Bawana School,28.796201,77.035577
243,103,Bawana Village Chowk,28.800379,77.036058
243,2899,Bawana Dispensary,28.801139,77.037544
243,2900,DSIDC Bawana Sec 2,28.803459,77.042622
243,22520,Bawana JJ Colony CRPF Camp,28.806989,77.047994
243,22521,Jain Bekhunth Mandir,28.812078,77.054057
243,755,Delhi Jal Board Bawana,28.815521,77.058038
243,2852,Sannoth Crossing / Ghoga Crossing,28.819901,77.063707
243,2853,Kaushal Devi Netraheen Ashram,28.825515,77.069757
243,2854,Bharat Mata School,28.832922,77.076468
243,2855,Maharaja Agrassen School,28.835746,77.079296
243,2856,New Anaj Mandi Xing,28.842683,77.088691
243,271,Narela Primary School,28.847045,77.088366
243,0,Narela Terminal,28.851958,77.088107
206,1238,Mubarak Pur Crossing,28.712614,77.028059
206,1239,Rani Khera School / Bhagya Vihar,28.70908,77.02799
206,1240,Rani Khera Village,28.70358,77.02789
206,1241,Rani Khera Depot Crossing,28.698024,77.027903
206,2068,Rani Khera Depot I,28.701095,77.03384333
98,3101,Azadpur Terminal,28.707663,77.178197
98,2214,Shalimar Bagh Crossing,28.703355,77.169098
98,382,Ashok Vihar Crossing,28.701819,77.165532
98,383,Richi Rich,28.70097,77.161821
98,384,Prem Bari Pul,28.700065,77.158465
98,385,Punjab Kesari (Subhash Palace Depot),28.695994,77.155671
98,386,Wazirpur DTC Depot / Netaji Subhash Palace,28.693861,77.150918
98,387,Pitampura ND Block,28.69553,77.146025
98,388,Kohat Enclave Metro Station,28.697168,77.142174
98,389,Vaishali  Enclave / Kapil Vihar,28.699303,77.137619
98,390,JD Block Pitam Pura,28.701454,77.134768
98,2605,Madhuban Chowk Pitampura Metro Stn,28.702623,77.132828
98,392,Madhuban Chowk Outer Ring Road,28.702886,77.130242
98,393,Saraswati  Vihar C Block,28.700082,77.125333
98,394,Deepali Chowk,28.69796,77.11962
98,395,Kali Mata Mandir,28.697185,77.115505
98,396,Puspanjali Enclave,28.696165,77.111793
98,397,Rohini Depot  3,28.695388,77.109414
98,398,Mangolpur School,28.694461,77.106694
98,689,Mangol Pur School (Kanjhawla Road),28.694632,77.105225
98,399,Mangolpur Kalan Village,28.695549,77.101135
98,400,Avantika Crossing,28.69875,77.0964
98,401,Mangol Pur Khurd,28.700005,77.094325
98,402,Mangolpuri Y Block,28.702634,77.089647
98,4292,Budh Vihar,28.704356,77.086935
98,404,Krishna Vihar,28.709736,77.081042
98,405,Brahm Shakti Hospital,28.7125001,77.0805
98,406,Pooth Kalan,28.714257,77.076933
98,692,Rohini Sec 20/21 More,28.7155,77.0743
98,407,Rohini Sec-21,28.7187,77.0696
98,1987,Rohini Sec 20/21/22 Crossing,28.720102,77.068773
98,4168,Police Station Begumpur,28.723041,77.071322
98,22557,Begumpur Extension,28.728585,77.075589
98,22558,Pansali Dham Rohini,28.740753,77.076572
98,22559,Rohini Sec 36,28.744632,77.067821
98,22560,Rohini Sec 37 eBus Depot,28.7477453,77.0534881
98,413,Karala School,28.730681,77.039664
98,414,Karala Village,28.7315,77.037
98,415,Karala Crossing,28.731601,77.031627
98,416,Desu Office,28.7325,77.0284
98,417,Shiv Vihar Bheem Chowk,28.7333,77.025
98,418,Radha Swami Satsang,28.73384,77.0208
98,419,Shivam Plywood,28.7352,77.01258333
98,88,Kanjhawala Village,28.733592,77.004502
229,2828,Mehrauli Terminal,28.52131611,77.18304673
229,1008,Qutub Minar,28.526517,77.18605
229,1009,T B Hospital,28.5283,77.1897
229,3519,DDA Flats Lado Sarai,28.529983,77.192133
229,1011,PTS,28.532964,77.195504
229,1012,MMTC / Adhchini Village,28.535351,77.196849
229,1013,Adhchini Village,28.537823,77.19807
229,1014,Mothers International School,28.541141,77.1995
229,1015,IIT Gate,28.543571,77.20071
229,1016,IIT Gate (Aurobindo Marg),28.54585,77.201967
229,1017,Padmani Enclave,28.5492,77.2034
229,1018,Hauz Khas,28.553,77.2049
229,1019,Green Park,28.558583,77.206733
229,1020,Yusuf Sarai,28.5626,77.2074
229,1021,Safdurjung Hospital / AIIMS,28.56725,77.207733
229,1022,Kidwai Nagar,28.575667,77.209735
229,1023,SJ Airport,28.584411,77.212295
229,1024,S J Madrasa,28.588591,77.212721
229,2391,Tughlaq Crescent,28.5942,77.212
229,2392,PS Tughlaq Road,28.599883,77.2112
229,2323,Udyog Bhawan,28.612729,77.211891
229,2324,Rail Bhawan Metro Station / Krishi Bhawan,28.615002,77.212136
229,1673,Krishi Bhawan,28.617483,77.213267
229,4378,Patel Chowk,28.622246,77.214617
229,2254,Patel Chowk (Ashoka Road),28.624548,77.210633
229,2255,Gurudwara Bangla Sahib,28.625333,77.209333
229,2256,NDPO,28.6235,77.2065
229,873,Kendriya Terminal (Pt. Pant Marg),28.6214,77.2064
229,874,Kendriya Terminal / Gurudwara Rakab Gunj,28.621017,77.205283
229,875,Talkatora Road,28.6222,77.2031
229,1671,RML Hospital,28.624508,77.197924
229,3481,Talkatora Stadium,28.626217,77.196417
229,3553,Upper Ridge Road,28.63215,77.190017
229,3218,New Rajinder Nagar Post Office,28.636825,77.182967
229,3219,Shankar Road,28.638883,77.179283
229,3220,Rajender Nagar,28.6407,77.176217
229,1451,East Patel Nagar,28.6404,77.1744
229,1452,NPL Colony,28.63725,77.17465
229,1453,R-Block Rajendra Nagar,28.6328,77.173
229,1454,Janak Vihar,28.6312,77.1712
229,1455,Pusa Quarters,28.630033,77.166983
229,1456,NASC Dasghara,28.6254,77.1622
229,1457,Todapur Village,28.6228,77.1592
229,1458,Monitoring  and  Receiving Station,28.6262,77.1534
229,1459,Inderpuri A-Block,28.6287,77.1511
229,1460,Inder Puri JJ Colony,28.6336,77.1479
229,1461,Inder Puri (Krishi Kunj),28.6372,77.1466
127,770,Anand Vihar ISBT Terminal,28.646328,77.314904
127,22576,Anand Vihar ISBT Main Road,28.649164,77.318371
127,67,Anand Vihar ISBT Main Road,28.647061,77.317903
127,1604,Maharaj Pur Check Post,28.643371,77.316656
127,1605,Gazipur Depot,28.641921,77.316118
127,1606,Hasanpur Village,28.636133,77.310567
127,1607,Hasanpur Depot,28.635896,77.308099
127,2813,Karkardooma Crossing,28.642917,77.297183
127,3059,New Rajdhani Enclave,28.642117,77.29625
127,127,Preet Vihar,28.639333,77.292417
127,128,Nirman Vihar,28.636783,77.287683
127,129,Shakarpur Crossing,28.635367,77.28495
127,130,Shakarpur,28.633394,77.281942
127,131,Laxmi Nagar,28.6313,77.2789
127,132,Rainy Well,28.628033,77.260933
127,133,Delhi Secretariat,28.62795,77.25235
127,1852,IG Stadium,28.633714,77.246653
127,1853,Gandhi Darshan,28.636821,77.246692
127,3916,DTC Rajghat Depot,28.640956,77.257748
127,439,Rajghat Depot,28.643931,77.252592
183,20028,Kashmere Gate City Bus Terminal,28.66819838,77.22921918
183,108,ISBT Kashmere Gate (Lothian Road),28.665616,77.230079
183,109,Guru Govind Singh University (Kashmere Gate),28.665677,77.230238
183,110,GPO,28.661738,77.235311
183,957,Red Fort,28.65808,77.236946
183,958,Jama Masjid,28.650847,77.238458
183,959,Darya Ganj Golcha Cinema,28.644152,77.240425
183,2447,Delhi Gate,28.637446,77.241206
183,4299,Shaheed Park (Bhagat Singh Terminal),28.635088,77.241222
183,2449,ITO,28.629204,77.241471
183,2586,Supreme Court / Pragati Maidan Metro Station,28.622475,77.240606
183,2587,Pragati Maidan Gate 5,28.617657,77.240496
183,2588,ITPO Gate No. 3,28.615415,77.240342
183,3330,National Stadium,28.610497,77.24023
183,1784,Zoo,28.608422,77.240216
183,3495,Sunder Nagar,28.6022,77.240417
183,1786,Delhi Public School,28.598679,77.240793
183,2209,Amir Khusro Park / Oberoi Hotel,28.5965,77.2407
183,1507,CGO Complex,28.586133,77.241067
183,1508,Pant Nagar,28.5835753,77.2405581
183,1509,Defence Colony (Lajpat Nagar Mtr Stn),28.573217,77.237783
183,1510,MCKR Hospital,28.5691249,77.2354946
183,3094,Central School (MCKR),28.56272689,77.23281469
183,20053,Sadiq Nagar,28.55621087,77.2294196
183,3095,Siri Fort Road,28.55322825,77.22833998
183,3096,Krishi Vihar,28.54716271,77.2294642
183,20054,Panchsheel Enclave,28.54306111,77.23140967
183,3097,Chirag Delhi,28.53898092,77.23230398
183,3098,Sheikh Sarai Phase II,28.53371245,77.23220962
183,3912,Pushpa Bhawan,28.52847981,77.23194186
183,866,Madangir DDA Flats,28.52469079,77.23037663
183,5087,Madangir DDA Flats,28.52036219,77.22833663
183,20341,Khanpur Ambedkar Nagar,28.51621073,77.22695847
183,2484,Ambedkar Nagar Terminal / DIPSAR,28.516101,77.223607
183,2485,Asian Market,28.5166,77.2214
183,2486,Saket Crossing,28.5176,77.216583
183,2487,Maidan Garhi Crossing (SDM Court),28.519067,77.2088
183,2488,Saket Metro Sation,28.520338,77.202869
183,2489,SaidulAJab,28.521142,77.199972
183,2490,Dhaula Peer,28.521941,77.197872
183,4650,Lado Sarai Firni Road,28.522577,77.196788
48,439,Rajghat Depot,28.643931,77.252592
48,4647,Shanti Van Crossing,28.651047,77.247733
48,3396,Vijay Ghat,28.657829,77.244768
48,3397,Hanuman Mandir / Yamuna Bazar,28.662929,77.236936
48,3571,GGS Indraprastha University Kashmere Gate,28.664924,77.234467
48,3567,Kashmere Gate City bus Terminal,28.668446,77.229444
172,146,Najafgarh Terminal,28.614614,76.978024
172,2032,Jharoda Crossing,28.614227,76.980845
172,149,Health Centre,28.61415,76.985217
172,488,NajafGarh Delhi Gate,28.611746,76.985721
172,489,Chawla Stand Najafgarh,28.607056,76.986005
172,490,BDO Office,28.600879,76.988758
172,491,Durga Vihar,28.59664,76.99046
172,492,Deenpur Village,28.594055,76.991774
172,493,Goela Dairy Crossing,28.591726,76.992969
172,1166,Jhatikara Crossing,28.584508,76.995742
172,1167,Rewla Taj Pur More,28.577927,76.996696
172,1168,Chhawla School,28.565889,77.000619
172,1246,Chhawla Village,28.561283,77.002168
172,1247,Sumesh Vihar,28.557759,77.004508
172,1248,BSF Camp Chhawla,28.554147,77.006475
172,1249,BSF Campus Chhawla,28.547741,77.00935
172,1250,Toll Tax Post,28.543378,77.012818
172,1251,Bamnoli Power Station,28.54218,77.017987
172,1252,Bamnoli Crossing,28.53919,77.030335
172,1253,Bijwasan Railway Station,28.535596,77.04381
172,1255,Shri Golok Dham Bijwasan School,28.533823,77.059292
172,1257,Kapashera Village Bijwasan Road,28.527671,77.076297
172,589,Kapashera Crossing,28.531234,77.088154
172,590,Samalkha Village,28.534492,77.090371
172,1259,Samalkha Crossing,28.537955,77.093708
172,1260,Uppal Hotel,28.537233,77.102493
172,1261,Shiv Murti (NH-8),28.535299,77.10847
172,1262,Rang Puri (NH-8 Circle),28.543865,77.117712
172,2101,Mahipal Pur (NH-8),28.5480236,77.1251508
172,1263,Mahipal Pur (NH-8),28.548041,77.125184
172,1264,Shankar Vihar NH-8,28.566684,77.133985
172,1265,APS Colony/ Jharera Gaon,28.579967,77.144817
172,1266,Air Force HQ / Subroto Park,28.584133,77.146033
172,1268,RR Hospital,28.590067,77.155817
172,191,Dhaula Kuan,28.592987,77.162865
172,1549,Officer Enclave S.P Marg,28.597241,77.171473
172,1550,Bapu Dham,28.599196,77.175168
172,1551,Railway Colony (Sardar Patel Marg),28.600686,77.177964
172,1552,Bhartiya Sadhu Samaj,28.603864,77.184052
172,1553,Palika Kutumb,28.60751,77.188687
172,1554,11 Murti,28.611132,77.190671
172,1555,Talkatora Stadium,28.621202,77.193727
172,1670,Dr. RML Hospital,28.6226,77.1966
172,1284,Talkatora Road,28.623281,77.201586
172,1285,Gurudwara Rakab Gunj,28.621164,77.20521
172,1286,Kendriya Terminal (Pt. Pant Marg),28.621545,77.206233
172,1287,NDPO,28.62548,77.2065
172,1556,Gurudwara Bangla Sahib,28.625396,77.209524
172,1557,YMCA / Palika Kendra,28.626382,77.212661
172,1558,Palika Kendra,28.628746,77.216568
172,1033,Shivaji Park,28.638674,77.223986
172,1034,Vivekanand Marg / Minto Road,28.64145,77.226006
172,1035,PS Kamla Market,28.643042,77.226021
172,22539,Kamla Market / Ajmeri Gate,28.643992,77.224068
156,3654,E Block Jahangir Puri Terminal,28.73308333,77.17265
156,3631,Jahangirpuri B Block,28.7293,77.1662
156,3632,Jahangirpuri A-Block,28.7285,77.1648
156,935,Jahangirpuri GT Road,28.7252,77.1634
156,29,Mahindra Park,28.721715,77.166162
156,30,Sarai Pipal Thala,28.7206,77.1671
156,31,Adarsh Nagar Metro Station,28.717467,77.169917
156,32,New Sabzi Mandi,28.714415,77.172422
156,4449,Azadpur,28.7096,77.1758
156,2214,Shalimar Bagh Crossing,28.703355,77.169098
156,382,Ashok Vihar Crossing,28.701819,77.165532
156,383,Richi Rich,28.70097,77.161821
156,2215,Prem Bari Pull,28.700077,77.158486
156,385,Punjab Kesari (Subhash Palace Depot),28.695994,77.155671
156,2010,Wazirpur Depot,28.691925,77.153796
156,2011,Telephone Exchange,28.686246,77.151088
156,2012,Britannia,28.685074,77.149267
156,2013,Shakurpur Shiv Mandir,28.681015,77.143195
156,1038,Punjabi Bagh Terminal,28.667414,77.135796
156,1039,Punjabi Bagh Club,28.663553,77.131207
156,1040,ESI Hospital,28.658396,77.128719
156,1041,Rajdhani College / Raja Garden,28.654765,77.125441
156,4450,Rajdhani College / Raja Garden,28.6548,77.1254
156,1537,Rajouri Garden,28.647847,77.120113
156,1538,Tagore Garden,28.645683,77.116211
156,1539,Tagore Garden Metro Station / Tatarpur,28.644,77.113549
156,1540,Subhash Nagar Crossing / Mukherji Park,28.64192,77.108859
156,1541,Meenakshi Garden,28.639983,77.10435
156,1542,Sant Pura Tilak Nagar,28.638567,77.100583
156,1824,Tilak Nagar Terminal,28.63666856,77.09706038
156,629,Janak Puri Check Post,28.63385875,77.08882985
156,630,B2A Janakpuri,28.632306,77.084585
156,631,Janak Puri District Centre,28.630488,77.080047
156,632,Dholi Piao,28.629119,77.076482
156,633,Vikaspuri Crossing,28.626449,77.06969
156,634,Uttam Nagar Terminal,28.624597,77.06498
78,146,Najafgarh Terminal,28.614614,76.978024
78,147,Jharoda Crossing/Nazafgarh Terminal,28.613617,76.979717
78,149,Health Centre,28.61415,76.985217
78,488,NajafGarh Delhi Gate,28.611746,76.985721
78,914,Police Station Najafgarh,28.609477,76.983288
78,915,Dhansa Stand,28.61149114,76.97790955
78,916,Khera More,28.610938,76.97401
78,2844,Prem Nursary,28.61016589,76.97130124
78,918,Nanak Piyau,28.60917792,76.96715712
78,919,Indra Service Station,28.60854181,76.95877826
78,4347,Mitraon Village,28.60824048,76.9473751
78,1737,Bhagini Nivedita College,28.617883,76.9312
78,1738,Kair Depot,28.618117,76.930783
171,904,Tilak Nagar Terminal,28.63632354,77.09574386
171,629,Janak Puri Check Post,28.63385875,77.08882985
171,630,B2A Janakpuri,28.632306,77.084585
171,631,Janak Puri District Centre,28.630488,77.080047
171,632,Dholi Piao,28.629119,77.076482
171,633,Vikaspuri Crossing,28.626449,77.06969
171,634,Uttam Nagar Terminal,28.624597,77.06498
171,905,Uttam Nagar,28.623129,77.061189
171,906,Prem Nagar,28.621893,77.056719
171,907,Om Vihar,28.621079,77.052669
171,908,Kiran Garden,28.620776,77.049872
171,909,Nawada,28.620222,77.04552
171,910,Mohan Garden,28.62004935,77.03916296
171,911,Sewak Park Dwarka More Metro Station,28.619263,77.033731
171,651,Kakrola More,28.61892598,77.02958463
171,652,Kakrola Bridge,28.619809,77.024876
171,653,Nangli Dairy,28.61970089,77.01766538
171,654,Chhathh Ghat Park,28.618803,77.015219
171,22567,Arjun Park,28.617934,77.012493
171,22568,Nangli Sakrawati Crossing,28.616222,77.007486
171,657,Nangli Sakrawati,28.61463009,77.00390399
171,658,Sai Baba Mandir,28.613536,76.999497
171,659,Power House NajafGarh,28.612929,76.995552
171,660,Tuda Mandi,28.6125091,76.99236002
171,488,NajafGarh Delhi Gate,28.611746,76.985721
171,914,Police Station Najafgarh,28.609477,76.983288
171,2031,Najafgarh Dhansa More,28.611458,76.979153
171,379,Jharoda Crossing Jharoda Road,28.6137657,76.97936262
171,380,NajafGarh Terminal,28.61483116,76.97724911
171,1973,Surakh Pur Crossing,28.6155,76.976317
171,3817,Gopal Nagar,28.61593,76.97307
171,3818,A Block Gopal Nagar,28.61726,76.9671
171,3819,Saraswati Enclave,28.61793,76.96466
171,3820,CRPF Jharoda Crossing,28.6203,76.95957
171,22547,Sainik Enclave Part 3 D Block,28.62402705,76.95258162
171,3821,Surakh Pur Village,28.62694405,76.9439309
235,1175,Rewla Khanpur Depot,28.56890762,76.97642902
235,1965,Purani Basti Rewla Khanpur,28.569594,76.977464
235,1966,Rewla Tajpur Crossing,28.572594,76.980927
235,1967,Jhatikara Crossing,28.58579,76.995161
235,228,Goela Dairy Crossing,28.591721,76.992877
235,229,Deenpur Village,28.593389,76.991941
235,230,Durga Vihar,28.596621,76.990298
235,231,BDO Office,28.600768,76.988661
235,232,Chhawla Stand Najafgarh,28.60799,76.985536
235,233,Police Station NajafGarh,28.61031861,76.98133766
235,2031,Najafgarh Dhansa More,28.611458,76.979153
235,379,Jharoda Crossing Jharoda Road,28.6137657,76.97936262
235,380,NajafGarh Terminal,28.61483116,76.97724911
121,706,Uttam Nagar,28.626011,77.068195
121,3531,Vikaspuri Xing,28.6276,77.0697
121,3532,PS Vikas Puri,28.631217,77.068583
121,2081,Budhela Village / C Block Vikas Puri,28.6354,77.070533
121,2082,Oxford School,28.638,77.0719
121,2083,Gurudwara Vikaspuri,28.6387,77.0743
121,3469,M Block Vikaspuri,28.63843,77.07775
121,2085,J Block Vikas Puri,28.63955,77.0792
121,2086,H-3 Vikas Puri,28.645922,77.079312
121,2087,JG 3 Block Vikaspuri,28.647117,77.0804
121,3612,CRPF Camp Keshopur,28.646361,77.084243
121,2088,Major Bhupinder Singh Marg,28.647141,77.084533
121,2089,Keshopur Depot,28.653,77.087672
121,2090,Meera Bagh Apartments,28.657542,77.09049
121,2347,Meera Bagh,28.658887,77.090929
121,2348,Sunder Vihar,28.663428,77.091736
121,2349,Sunder Apartment,28.665403,77.092203
121,2095,Peera Garhi Depot,28.675964,77.093988
121,1379,Peera Garhi Chowk,28.6803,77.094398
121,2350,Mangol Puri B Block (ORR),28.689145,77.096167
121,2351,West Enclave (ORR),28.693317,77.101458
121,991,Mangol Pur School (Outer Ring Road),28.694414,77.106315
121,992,Rohini Depot III,28.695494,77.108823
121,993,Puspanjali Enclave Rohini Depot 3,28.696609,77.112857
121,994,Kali Mata Mandir,28.697446,77.115993
121,995,Deepali Chowk Ring Road,28.698196,77.119004
121,996,Saraswati Vihar C Block,28.700141,77.12472
121,997,Madhuban Chowk Outer Ring Road,28.701935,77.128048
121,2001,Madhuban Chowk (Outer Ring Road),28.7054,77.132
121,998,RU Block Power House,28.708375,77.134799
121,2149,Pitampura RU Block,28.70992,77.13649
121,999,Pitampura RU Block,28.71064,77.13667
121,1000,Uttri Pitam Pura,28.715019,77.138989
121,1001,Pitam Pura BV Block,28.71649,77.13932
121,1002,Haidarpur Water Works,28.72155,77.140383
121,1944,Badli Crossing,28.728649,77.146021
121,1945,Haiderpur Metro Station,28.73107474,77.14969427
121,26,Mukarba Chowk,28.735084,77.155874
121,27,GTK Depot,28.731117,77.158967
121,28,Jahangirpuri GT Road (Metro Station),28.7257,77.163
121,29,Mahindra Park,28.721715,77.166162
121,30,Sarai Pipal Thala,28.7206,77.1671
121,31,Adarsh Nagar Metro Station,28.717467,77.169917
121,32,New Sabzi Mandi,28.714415,77.172422
121,951,Azadpur Terminal,28.707667,77.180271
121,952,Model Town III,28.706127,77.185301
121,953,Model Town II,28.704282,77.190629
121,954,Alpana Cinema (Model Town Mtr Stn),28.703017,77.193837
121,955,New Police Line,28.699589,77.202973
121,293,GTB Nagar,28.698294,77.206554
121,195,INS Hostel,28.696197,77.21214
121,196,Vishwa Vidyalaya Metro Station,28.695022,77.215318
121,197,Mall Road,28.69382,77.218624
121,294,Khyber Pass,28.690202,77.221419
121,295,Vidhan Sabha Metro Station,28.687634,77.221672
121,296,Old Secretariat (Postal Account Office),28.683891,77.222282
121,297,IP College,28.679703,77.223955
121,298,Exchange Store / Civil Lines Metro Station,28.676602,77.225033
121,299,Ludlow Castle,28.672405,77.226008
121,300,ISBT Nityanand Marg,28.668479,77.226269
54,3607,Sultanpuri Terminal,28.70313785,77.0752384
54,2538,Sultanpuri C Block,28.70095,77.0754
54,2539,Sultanpuri D Block,28.6996,77.0753
54,2540,Jalebi Chowk Sultan Puri AB Block,28.6955,77.0738
54,3608,Sultan Puri AB Block,28.6935,77.073
54,2541,Sultan Puri AB Block Extension,28.69306,77.0775
54,2542,Mangol Puri S Block,28.69249,77.082147
54,2543,T Block Magol Puri,28.689348,77.082071
54,2544,Q-Block Mangolpuri,28.688,77.0906
54,4249,B Block Mangol Puri,28.689169,77.095424
54,1425,Peera Garhi Chowk,28.679358,77.096988
54,1426,Paschim Vihar (Super Market),28.678888,77.100623
54,1427,Multan Nagar,28.678287,77.105707
54,1428,New Multan Nagar,28.677509,77.111541
54,1429,Ordinance Depot,28.677091,77.114998
54,1430,Madipur JJ Colony,28.676365,77.120477
54,1431,Madipur Village,28.675962,77.123824
54,1432,SPM College,28.675382,77.128003
54,1433,Shivaji Park,28.674917,77.13152
54,1434,Maharaja Agrasen Hospital,28.674485,77.134949
54,2277,Punjabi Bagh Terminal (Rohtak Road),28.673355,77.143876
54,2278,Punjabi Bagh West Power House,28.67296,77.147244
54,2279,Ram Pura,28.672048,77.153511
54,2706,Ashok Park,28.671382,77.157292
54,2281,Zakhira Flyover,28.668627,77.165368
54,2428,Daya Basti Flyover,28.6665,77.170033
54,2283,Anand Parbat Industrial Area,28.664714,77.175426
54,2429,Sarai Rohilla (Rohtak Road),28.662689,77.185138
54,2284,Sarai Rohilla Govt Qtrs (Rohtak Road),28.661228,77.185153
54,2285,Liberty Cinema,28.660021,77.188823
54,2286,Ram Jas Road,28.659335,77.19094
54,2287,Tibiya College,28.657536,77.194888
54,2288,Guru Govind Singh Marg,28.655493,77.199002
54,2289,Filmistan,28.659639,77.202922
54,2290,Bara Hindu Rao,28.66126594,77.20404119
54,2291,Azad Market,28.663272,77.207209
54,107,Ice Factory (Nityanand Marg),28.6676101,77.210806
54,46,St Stephen Hospital,28.667356,77.215047
54,47,Tees Hazari Court,28.666864,77.218926
54,22561,ISBT Nityanand Marg,28.668351,77.225019
54,49,ISBT Bridge,28.669469,77.228659
54,50,Metro Train Depot,28.673867,77.241633
54,51,Metro Train Depot,28.674383,77.243117
54,52,Shyam Giri Mandir,28.6741,77.24775
54,53,Shastri Park GT Road,28.67345439,77.25195362
54,54,Shastri Park GT Road,28.67261116,77.25723261
54,55,Dharampura GT Road,28.67125108,77.26167479
54,56,Seelampur Metro Station,28.670783,77.265423
54,3594,Seelampur Market Zafrabad Road,28.67352844,77.26997563
54,3595,Zafrabad,28.676117,77.271317
54,3596,Madarsa / Welcome Seelam Pur,28.6783,77.272583
54,3597,Zafrabad School,28.68426,77.275224
54,3768,Mauj Pur,28.6893,77.277855
54,2577,Babar Pur Ext Terminal,28.690867,77.279475
54,2688,Shiv Mandir,28.689933,77.28395
54,2689,Chhajjupur,28.689543,77.287017
54,2690,Jyoti Nagar / Durga Puri,28.689423,77.291367
54,2691,Jyoti Nagar,28.6915,77.291818
54,2692,PS Jyoti Nagar / LIG Flats Loni Road,28.696213,77.291601
54,2693,MIG Flats Loni Road,28.69923,77.291558
54,1889,MIG Flates Loni Road,28.700716,77.295277
54,1890,Ashok Nagar / Meet Nagar,28.700269,77.297937
54,1891,Nand Nagari Depot,28.699088,77.30674
54,1892,Bank Colony,28.698374,77.311063
54,1177,Gagan Cinema,28.695833,77.315364
54,1767,Nand Nagari E-Block,28.6934,77.31375
54,1768,Nand Nagari Terminal,28.691383,77.310483
219,4434,Ghuman Hera Depot 1,28.5380635,76.91315187
219,1392,Ghuman Hera DTC Depot Crossing,28.534141,76.915295
219,1393,Ghuman Hera Village Main Road,28.5325784,76.9193509
219,560,Ghuman Hera More / Shikarpur Crossing,28.536905,76.922167
219,561,Dewta Wala mandir,28.548976,76.930686
219,562,Hasanpur Village,28.55682227,76.93685488
219,563,KharKhari Rondh,28.56176,76.941887
219,564,Pandwala Crossing,28.574027,76.952356
219,565,KharKhari Jatmal / Surhera Crossing,28.582168,76.957902
219,566,KharKhari Nahar / Khera Dabur,28.58704,76.959128
219,567,Khera Village 2,28.596312,76.964794
219,1394,khera Village,28.599234,76.967138
219,568,Krishna Nagar / Gopal Nagar,28.606791,76.972726
219,378,Khera More / Ghuman Hera Crossing,28.61113002,76.97445974
219,22519,Nazafgarh Dhansa More,28.612021,76.978565
219,2032,Jharoda Crossing,28.614227,76.980845
219,4062,Dichau Chowk,28.61755,76.983604
219,4063,Shiv Enclave Dichau,28.623999,76.984556
219,4064,Dichau Village,28.639866,76.984045
219,3718,Dichau Kalan School,28.642699,76.986388
219,3719,Neelwal Crossing,28.649433,76.990533
219,4286,Air Force Camp Hiran Kudna Village,28.663541,76.995028
219,4287,Hiran Kudna Village,28.671192,76.997925
219,4288,Hiran Kudna Shiv Mandir,28.672003,76.996318
219,4289,Hiran Kudna Village,28.673279,76.998477
219,4290,Royal Garden Hiran Kudna Village,28.680564,76.999447
219,3032,Ghevra Crossing Rohtak Road,28.685266,76.994167
219,2759,Tikri Piyau / Azad Hind Gram,28.68645,76.981183
219,2760,Tikri Hospital,28.686597,76.978404
219,2761,Tikri Village,28.68726667,76.97136667
219,2762,Tikri Border Metro Station,28.68773335,76.96534198
9,1139,Bawana Sec 5 Cluster Depot,28.8102799,77.07600851
9,1140,Holambi Crossing,28.800838,77.084369
9,1141,Pragati Power Station Bawana,28.794236,77.073733
9,1142,Rajeev Ratan Aawas Bawana,28.784427,77.063506
9,1143,Ganga Toli Mandir Bawana,28.7866,77.05903
9,1144,Sec 1 / 2 Bawana Indst Area,28.79043,77.05225
9,21,Bawana JJ Colony CRPF Camp,28.806738,77.048163
9,1145,DSIDC Bawana Sec 2,28.803302,77.042627
9,1146,Bawana Soap Factory,28.8018412,77.03929
9,1147,Bawana Dispensary,28.80095,77.03738
9,1148,Bawana Village Chowk,28.799973,77.03552
9,1914,Bawana School,28.796282,77.035817
9,1915,Aditi College Bawana,28.7942,77.0368
9,1916,DSIDC Bawana/ Dhakewala,28.78585,77.0414
9,22516,DSIDC Office Bawana,28.7804,77.044017
9,1918,Maharishi Valmiki Hospital,28.775033,77.047683
9,1919,Poothkhurd Village,28.772383,77.048967
9,1920,Sultan Pur Crossing / Poothkhurd,28.767867,77.049417
9,1921,Poothkhurd Firni Road,28.764589,77.054957
9,1922,Barwala Village,28.760383,77.060717
9,1923,Barwala School,28.759233,77.062833
9,3985,Rohini Sec 35,28.757463,77.066964
9,1924,Jain Colony,28.7539,77.072883
9,1925,Prehladpur School,28.75305,77.07475
9,1926,Prehladpur Village,28.7512,77.080967
9,1927,Prehladpur Crossing,28.749319,77.084811
9,2937,Krishna Colony,28.746817,77.087767
9,2938,Deep Vihar,28.737876,77.083138
9,2939,Prehlad Vihar (Deep Vihar) Rohini Sec 25,28.735182,77.086984
9,22517,Rohini Sec 24 Dear Satguru Sewaram Crossing,28.72821709,77.09256598
9,22518,Hanuman Mandir Rohini Sec 24,28.722883,77.087733
9,2941,Power House Rohini Sec 24,28.726983,77.080267
9,4051,Police Station Begumpur,28.72244,77.071418
9,2942,Rohini Sec 20/21/22 Crossing,28.719975,77.069
9,981,Rohini Sec-21,28.7188,77.069767
9,982,Poothkalan,28.71589,77.07422
9,983,Pooth Kalan,28.714336,77.077075
9,984,Brahm Shakti Hospital,28.712372,77.080713
9,985,Buddh Vihar,28.706783,77.084171
9,986,Buddh Vihar,28.706566,77.084098
9,4278,Mangol Puri Y Block,28.702709,77.088284
9,2911,Mangol Puri J Block,28.697965,77.083811
9,2912,Mangolpuri K Block (Sanjay Gandhi Hospital),28.694702,77.082072
9,2913,Mangolpuri S Block,28.6927,77.082
9,2988,Sultan Puri AB Block Extension,28.69275,77.077417
9,2989,Jalebi Chowk Sultan Puri AB Block,28.6954,77.0735
9,2990,Sultanpuri D Block,28.7005,77.0753
9,2991,Sultanpuri C Block,28.7016,77.0752
9,1164,Sultanpuri Terminal,28.70344854,77.07500931
207,884,Dhaula Kuan,28.592721,77.163492
207,1687,RR Hospital / Maharana Pratap Chowk,28.59015,77.15675
207,1688,Air Force HQ / Subroto Park,28.583678,77.146096
207,1689,APS Colony/ Jharera Gaon,28.579433,77.145
207,2413,APS Colony,28.574431,77.142057
207,4379,Shankar Vihar / National Highway 8,28.566514,77.134394
207,1691,Mahipal Pur Crossing NH-8,28.545775,77.123056
207,1692,Rang Puri (NH-8),28.541953,77.118268
207,1693,Shiv Murti,28.535769,77.112611
207,1694,Rajokari Crossing NH-8,28.523139,77.099001
207,1695,Shiv Murti / Dwarka More,28.534898,77.108437
207,2067,Uppal Hotel,28.536237,77.102112
207,591,Samalkha Crossing,28.538205,77.091434
207,592,Puspanjali G Block,28.54226267,77.07354592
207,593,Dwarka Road,28.544217,77.065083
207,594,Bharthal Under Pass,28.547567,77.057117
207,2019,Dwarka Sec 22 Cluster Depot,28.554291,77.0522752
207,2797,Bharthal Village,28.540209,77.050937
175,3672,Tiggi Pur Village,28.821909,77.188343
175,3673,Sungar Pur,28.82197,77.185064
175,929,Bakhtawar Pur Primary School,28.825833,77.174563
175,930,Bakhtawar Pur Village,28.82208,77.171555
175,931,Triveni Colony,28.818615,77.166323
175,932,Bakhtawar Pur School,28.814533,77.161217
175,933,Palla More,28.80336,77.143775
175,579,Pwd Office,28.8012,77.138967
175,580,Alipur Village GT Road,28.796617,77.1396
175,934,Mcd Store,28.793717,77.142333
175,581,Jind Pur Crossing,28.793233,77.14415
175,582,Sai Mandir,28.78865,77.141467
175,583,Budhpur GT Road,28.782107,77.141601
175,584,Jain Mandir,28.77715,77.142633
175,585,Nangli Poona (GT Road),28.774167,77.143267
175,586,Gurudwara Siraspur GT Road,28.764956,77.146126
175,23,Swaroop Nagar GT Road,28.758318,77.148305
175,24,Libas Pur GT Road,28.75027,77.15075
175,25,Sanjay Gandhi Transport Nagar,28.7402,77.154
175,27,GTK Depot,28.731117,77.158967
175,28,Jahangirpuri GT Road (Metro Station),28.7257,77.163
175,29,Mahindra Park,28.721715,77.166162
175,30,Sarai Pipal Thala,28.7206,77.1671
175,31,Adarsh Nagar Metro Station,28.717467,77.169917
175,32,New Sabzi Mandi,28.714415,77.172422
175,33,Azadpur Terminal (Bara Bagh Road),28.70653322,77.17927959
175,34,Bara Bagh,28.7017,77.1831
175,35,Gujranwala Town,28.6995,77.1849
175,36,Telephone Exchange,28.6971,77.1869
175,37,State Bank Colony,28.6954,77.1883
175,38,Gurudwara Nanak Pyau,28.691,77.192
175,39,Rana Pratap Bagh,28.68826667,77.1937
175,40,Gur Mandi,28.6848,77.1963
175,41,Roop Nagar / Shakti Nagar (GT Road),28.682832,77.197614
175,42,Clock Tower,28.677617,77.201567
175,43,Roshnara Bagh,28.6733,77.2018
175,44,Roshnara Road,28.669249,77.20455
175,936,Ice Factory (Rani Jhansi Road),28.667228,77.209036
175,46,St Stephen Hospital,28.667356,77.215047
175,47,Tees Hazari Court,28.666864,77.218926
175,108,ISBT Kashmere Gate (Lothian Road),28.665616,77.230079
175,109,Guru Govind Singh University (Kashmere Gate),28.665677,77.230238
175,110,GPO,28.661738,77.235311
175,111,Old Delhi Railway Station (T),28.66005068,77.22789212
2,3369,Daulat Pur Village,28.546873,76.963232
2,2764,Sarvodya School Daulat Pur,28.543821,76.963654
2,4637,Aslatpur Crossing,28.53804571,76.95965741
2,2765,Shikar Pur Village,28.529998,76.955272
2,4060,Ghuman Hera Crossing,28.52783766,76.95111609
2,4638,Sub Division Office,28.53082231,76.93423659
2,4639,Ghuman Hera Village,28.533659,76.928931
2,2169,Ghuman Hera More / Shikarpur Crossing,28.536825,76.922412
2,2170,Ghuman Hera Village Main Road,28.5326827,76.9196563
2,4445,Ghuman Hera DTC Depot Crossing,28.534407,76.915029
2,4446,Ghuman Hera Depot 1,28.53800829,76.91301361
37,4291,Ramdev Chowk Narela Terminal,28.857918,77.094044
37,4,Narela A-6 / CPJ College,28.857684,77.097117
37,5,State Bank Of Allahbad,28.854724,77.097933
37,6,Sec A-9 Narela,28.851769,77.097906
37,7,Narela Pocket 13 / A-9,28.851771,77.097849
37,8,Narela Pocket 13 / A-6,28.848993,77.098485
37,9,Raja Harish Chandra Hospital,28.840804,77.10202
37,10,Kasturi Ram School,28.837226,77.098578
37,1650,Babu Jag Jeevan Ram Colony,28.832968,77.093401
37,1651,Bhor Garh,28.829124,77.094652
37,1652,DSIDC Narela,28.821359,77.100732
37,1653,Narela ITI / Narela Depot,28.820309,77.101315
37,1654,Shahpur Garhi,28.817344,77.1028
37,760,Holambi Kalan Crossing,28.809357,77.10746
37,761,Jeet Farm,28.800239,77.114663
37,762,Holambi Khurd Crossing,28.797139,77.117385
37,763,Alipur Garhi,28.79804,77.127346
37,764,Alipur Village,28.797253,77.133138
37,580,Alipur Village GT Road,28.796617,77.1396
37,934,Mcd Store,28.793717,77.142333
37,581,Jind Pur Crossing,28.793233,77.14415
37,582,Sai Mandir,28.78865,77.141467
37,583,Budhpur GT Road,28.782107,77.141601
37,584,Jain Mandir,28.77715,77.142633
37,585,Nangli Poona (GT Road),28.774167,77.143267
37,586,Gurudwara Siraspur GT Road,28.764956,77.146126
37,23,Swaroop Nagar GT Road,28.758318,77.148305
37,24,Libas Pur GT Road,28.75027,77.15075
37,25,Sanjay Gandhi Transport Nagar,28.7402,77.154
37,27,GTK Depot,28.731117,77.158967
37,28,Jahangirpuri GT Road (Metro Station),28.7257,77.163
37,29,Mahindra Park,28.721715,77.166162
37,30,Sarai Pipal Thala,28.7206,77.1671
37,31,Adarsh Nagar Metro Station,28.717467,77.169917
37,32,New Sabzi Mandi,28.714415,77.172422
37,951,Azadpur Terminal,28.707667,77.180271
37,952,Model Town III,28.706127,77.185301
37,953,Model Town II,28.704282,77.190629
37,954,Alpana Cinema (Model Town Mtr Stn),28.703017,77.193837
37,955,New Police Line,28.699589,77.202973
37,293,GTB Nagar,28.698294,77.206554
37,195,INS Hostel,28.696197,77.21214
37,196,Vishwa Vidyalaya Metro Station,28.695022,77.215318
37,197,Mall Road,28.69382,77.218624
37,294,Khyber Pass,28.690202,77.221419
37,295,Vidhan Sabha Metro Station,28.687634,77.221672
37,296,Old Secretariat (Postal Account Office),28.683891,77.222282
37,297,IP College,28.679703,77.223955
37,956,Exchange Store / Civil Lines Metro Station,28.676617,77.225033
37,299,Ludlow Castle,28.672405,77.226008
37,300,ISBT Nityanand Marg,28.668479,77.226269
37,1185,Mori Gate Terminal,28.66608,77.22161
37,1951,Novelty Cinema,28.6614,77.2211
37,1585,Old Delhi Railway Station,28.66030866,77.22830103
32,1517,Nehru Place Terminal,28.548578,77.255659
32,1701,Nehru Place Terminal,28.54735,77.253991
32,1702,Nehru Place,28.54755,77.249444
32,1703,Sant Nagar,28.552367,77.246167
32,1704,Kailash Colony,28.5561,77.2411
32,1705,Lady Shri Ram College,28.5588,77.2371
32,1706,Central School (KV),28.5597,77.2335
32,22540,Central School (MCKR),28.56166447,77.23181997
32,1708,Andrews Ganj,28.566027,77.229627
32,1709,South Extension,28.568367,77.22315
32,1710,South Extn Kotla Petrol Pump,28.568682,77.218314
32,1711,AIIMS,28.568914,77.213693
32,1712,SJ Hospital Ring Road,28.569541,77.203522
32,1713,Nauroji Nagar,28.56929625,77.19503921
32,1714,Hyatt Hotel (GAIL),28.569743,77.186793
32,1715,RK Puram Sec-12,28.570381,77.182761
32,1716,RK Puram Sec-12,28.5723,77.1798
32,1717,RK Puram Sec-12,28.5752,77.1778
32,1718,South Moti Bagh (Ring Road),28.581592,77.174168
32,1719,Moti Bagh Gurudawara Nanakpura,28.584933,77.172167
32,1720,Satya Niketan,28.58769,77.170461
32,1721,ARSD College (Dhaula Kuan),28.590383,77.168467
32,1722,Dhaula Kuan,28.5985348,77.1633019
32,1723,R R Lines,28.603903,77.155531
32,1724,Garrison Engg.,28.605202,77.146802
32,1725,Brar Square,28.6072794,77.1410982
32,888,Thimiyan Park,28.60265,77.133483
32,1726,Kirbi Place,28.60535,77.126367
32,890,Supply Depot,28.606633,77.123233
32,891,Janak Setu,28.6104,77.1138
32,1727,Nangal Raya Lajwanti Garden,28.611868,77.109342
32,1728,D Block Janak Puri (Pankha Road),28.607682,77.104129
32,894,SagarPur Vashisht park,28.609254,77.0996
32,895,Desu Colony Janakpuri,28.610901,77.098786
32,896,C5A Janakpuri,28.6155,77.097
32,897,Central Market C3 Janakpuri,28.61525,77.092367
32,620,C4E Janakpuri,28.616659,77.087976
32,621,C2B Janak Puri,28.621222,77.088818
32,898,C2 Janakpuri,28.6216,77.0841
32,899,A3 Janak Puri,28.619583,77.079267
32,900,Janak Puri,28.617945,77.077135
32,901,Jivan Park,28.619637,77.073604
32,902,Tilak Pul,28.621389,77.070002
32,903,Uttam Nagar /#REF!  Janak Puri,28.624,77.068009
32,4301,Uttam Nagar Terminal,28.625329,77.066948
161,1350,Qamruddin Nagar Terminal,28.682261,77.054315
161,3652,Nangloi JJ Colony Lokesh Cinema,28.68226257,77.05939515
161,1424,Nangloi Metro Station,28.682235,77.064393
161,1373,Sultan Puri Crossing/Nangloi,28.682268,77.068791
161,1374,Maha Raja Surajmal Stadium,28.6821,77.072925
161,1375,Nangloi Bus Stand,28.681534,77.078788
161,1376,Inder Enclave,28.681041,77.083855
161,1377,Udyog Nagar,28.680368,77.08915
161,1378,Peera Garhi Metro Station,28.679904,77.092102
161,2943,Peera Garhi Chowk,28.678182,77.094671
161,2944,Peera Garhi Depot,28.675005,77.093956
161,3625,Bhairon Enclave,28.67225,77.0936
161,3204,Ekta Apartment Paschim Vihar,28.6689141,77.0993937
161,4452,A3 Block Paschim Vihar,28.6690583,77.1033902
161,3205,Paschim Vihar A3 Mother Dairy,28.6699036,77.106667
161,3206,Paschim Vihar Road No 29,28.6699935,77.1128367
161,3207,Paschim Puri Paschim Vihar,28.6682217,77.1125259
161,3208,Paschim Puri Pkt 2 Mother Dairy,28.6672848,77.1161938
161,3209,Punjabi Bagh Extension,28.666617,77.123245
161,3210,Punjabi Bagh Market,28.666204,77.127174
161,3211,Syndicate Bank,28.668261,77.128014
161,3212,West Avenue Road,28.670277,77.128292
161,1038,Punjabi Bagh Terminal,28.667414,77.135796
161,1039,Punjabi Bagh Club,28.663553,77.131207
161,1040,ESI Hospital,28.658396,77.128719
161,1041,Rajdhani College / Raja Garden,28.654765,77.125441
161,3904,Raja Garden (Ring Road),28.651718,77.124601
161,1042,Rajouri Garden Market,28.645609,77.127065
161,1043,Mayapuri Chowk (Ring Road),28.638603,77.129843
161,2464,Naraina Vihar,28.624306,77.135286
161,1045,Naraina Village,28.618591,77.136612
161,1046,COD Ring Road,28.612925,77.137272
161,1047,Barar Square,28.607394,77.141632
161,4453,Garrision Eng.,28.605354,77.147411
161,1049,RR Line,28.60415,77.155333
161,1050,Dhaula Kuan (Ring Road),28.599544,77.162493
161,2372,Dhaula Kuan ARSD College,28.590141,77.169167
161,1051,Satya Niketan,28.588732,77.170023
161,1052,Gurudwara Moti Bagh,28.5851033,77.1724418
161,1053,South Moti Bagh (Ring Road),28.581943,77.174262
161,2106,RK Puram Sec 13,28.57133,77.181727
161,2466,Hyatt Hotel,28.570143,77.185598
161,2628,Africa Avenue,28.569595,77.191332
161,2107,Nauroji Nagar,28.569634,77.195464
161,2383,Raj Nagar,28.570024,77.201105
161,2108,SJ Hospital,28.569786,77.204402
161,1405,AIIMS Ring Road,28.569185,77.21269
161,1406,South Extension,28.569014,77.216908
161,1407,South Extension,28.568824,77.220684
161,456,Andrews Ganj,28.565987,77.230567
161,457,Gupta Market,28.565133,77.239733
161,458,Lajpat Nagar (Ring Road),28.565202,77.242598
161,2467,Lajpat Nagar (Ring Road),28.565482,77.245621
161,459,Lajpat Nagar Ring Road,28.565781,77.249098
161,1090,Nehru Nagar,28.569103,77.253865
161,2629,Maharani Bagh / Ashram,28.573205,77.258987
161,1408,Maharani Bagh,28.576818,77.264444
161,1409,Bala Sahib Gurudwara,28.581423,77.265917
161,1410,Sarai Kale Khan ISBT,28.587412,77.259042
161,4454,Sarai Kale Khan ISBT Terminal,28.58560426,77.25840648
126,1585,Old Delhi Railway Station,28.66030866,77.22830103
126,748,GPO,28.661944,77.234569
126,749,Guru Govind Singh University (Kashmere Gate),28.665331,77.230123
126,1560,ISBT Kashmere Gate,28.667068,77.229274
126,48,ISBT Nityanand Marg,28.668328,77.225017
126,818,Ludlow Castle,28.672284,77.225834
126,819,Exchange Store / Civil Lines Metro Station,28.676749,77.224848
126,1617,IP College,28.68017,77.223489
126,821,Old Secretariat (Postal Account Office),28.683783,77.222172
126,822,Vidhan Sabha Metro Station,28.687802,77.221442
126,823,Khyber Pass,28.690613,77.221168
126,824,Mall Road,28.693646,77.218432
126,825,Vishwa Vidyalaya Metro Station,28.695213,77.214096
126,826,INS Hostel,28.696149,77.211705
126,1583,GTB Nagar,28.698357,77.205678
126,2915,New Police Lines,28.699194,77.203386
126,2916,Alpana Cinema (Model Town Mtr Stn),28.70271,77.193708
126,2917,Model Town II,28.704042,77.190535
126,2918,Model Town III,28.705905,77.185185
126,2919,Azadpur Metro Station,28.707269,77.180917
126,239,Azadpur Terminal,28.707525,77.177797
126,1244,New Sabzi Mandi,28.7143,77.172217
126,241,Adarsh Nagar / Bharola Village,28.715917,77.170867
126,242,Sarai Peepal Thala,28.720417,77.166983
126,243,Mahindra Park,28.72153333,77.166
126,244,Jahangir Puri GT Road,28.7251,77.163217
126,245,Jahangir Puri Metro Station,28.7273,77.161583
126,246,GTK Depot,28.731183,77.158617
126,2143,Haiderpur Metro Station,28.7308471,77.14990378
126,2144,Badli Crossing,28.728354,77.14621
126,2145,PS Badli,28.724867,77.142388
126,2146,Haider Pur Water Works,28.721333,77.140683
126,3425,Prashant Vihar F-Block,28.718567,77.1391
126,3426,Sai Apartment,28.720883,77.134467
126,3427,Anubhav Apartment,28.722,77.13285
126,3428,Vidya Marg Crossing,28.724621,77.129229
126,3639,ESI Hospital,28.726417,77.126433
126,3640,Rohini Depot-II,28.729867,77.121483
126,3641,Rohini Sec-11 (Aggarwal Sabha),28.733817,77.115767
126,3642,Rohini Sec 17A,28.738683,77.117333
126,3435,Rohini Sec 16 (Maharaja Aggarsen Dharam Sthal),28.742262,77.120435
126,2742,Rohini Sec-16 Xing,28.744217,77.120593
126,2743,Delhi Engg College Shahbad,28.745292,77.116388
126,2744,Shahbad Daulatpur Gaon,28.745279,77.112086
126,2745,Shahbad Daulatpur School,28.745669,77.106847
126,2746,St Xavier School,28.745565,77.102837
126,2747,Shahbad Dairy Block A,28.745885,77.098541
126,2748,Shahbad Dairy,28.746647,77.0958
126,2749,Rohini Sec 27 and 30 Crossing,28.747792,77.089138
126,2357,Prehladpur Village,28.751012,77.081081
126,2358,Prehladpur School,28.75257,77.075612
126,2359,Jain Colony,28.75375,77.0728
126,3648,Rohini Sec 35,28.757266,77.066803
126,2360,Barwala School,28.759052,77.062701
126,2361,Barwala Village,28.760283,77.060436
126,2750,Poothkhurd Firni Road,28.76436,77.054918
126,2362,Sultan Pur Crossing / Poothkhurd,28.767917,77.049267
126,2363,Poothkhurd Village,28.772317,77.0489
126,2364,Maharishi Valmiki Hospital,28.775183,77.047367
126,2751,DSIDC Office Bawana,28.780528,77.043774
126,2365,Dhakewala Bawana,28.786105,77.041019
126,2366,Aditi College Bawana,28.794621,77.036256
126,2367,Bawana School,28.796201,77.035577
126,103,Bawana Village Chowk,28.800379,77.036058
126,2899,Bawana Dispensary,28.801139,77.037544
126,2900,DSIDC Bawana Sec 2,28.803459,77.042622
126,22520,Bawana JJ Colony CRPF Camp,28.806989,77.047994
126,22521,Jain Bekhunth Mandir,28.812078,77.054057
126,755,Delhi Jal Board Bawana,28.815521,77.058038
126,756,Sannoth Crossing / Ghoga Crossing,28.819594,77.063606
126,757,Sannoth Village,28.81561,77.07098
